[
  {
    "id": 1,
    "name": "Advanced Imaging Centers: Marietta",
    "services": "Closed MRI",
    "address": "1070 Woodlawn Dr. NE, Suite 150, Marietta 30068",
    "category": "Imaging Facility",
    "markedGreen": false,
    "hours": "Monday-Friday 9AM-5PM",
    "language": "Russian",
    "rating": 1,
    "insurance": "",
    "lat": 33.97438,
    "lng": -84.415408
  },
  {
    "id": 2,
    "name": "Advanced Imaging Centers Buckhead/Midtown",
    "services": "Open MRI and Closed MRI;\u00a0\nCT Scan and Xray",
    "address": "2284 Peachtree Road NW, Atlanta 30309",
    "category": "Imaging Facility",
    "markedGreen": false,
    "hours": "Monday-Friday 9AM-5PM",
    "language": "English",
    "rating": 2,
    "insurance": "",
    "lat": 33.816866,
    "lng": -84.390654
  },
  {
    "id": 3,
    "name": "Advanced Imaging Centers: Newnan",
    "services": "Open/Closed MRI, CT &\nRay",
    "address": "60 Oak Hill Blvd, Suite 101, Newnan 30265",
    "category": "Imaging Facility",
    "markedGreen": false,
    "hours": "Monday-Friday 9AM-5PM",
    "language": "English",
    "rating": 3,
    "insurance": "",
    "lat": 33.402624,
    "lng": -84.710138
  },
  {
    "id": 4,
    "name": "Advanced Imaging Centers: Peachtree City",
    "services": "Closed MRI, CT & X-Ray",
    "address": "10 Eastbrook Bend, Peachtree City 30269",
    "category": "Imaging Facility",
    "markedGreen": false,
    "hours": "Monday-Friday 9AM-5PM",
    "language": "English",
    "rating": 1,
    "insurance": "",
    "lat": 33.410045,
    "lng": -84.565075
  },
  {
    "id": 5,
    "name": "Advanced Imaging Centers: Statesboro",
    "services": "Open MRI & CT",
    "address": "1601 Fair Road, Statesboro 30458",
    "category": "Imaging Facility",
    "markedGreen": false,
    "hours": "Monday-Friday 9AM-5PM",
    "language": "English",
    "rating": 2,
    "insurance": "",
    "lat": 32.408781,
    "lng": -81.765555
  },
  {
    "id": 6,
    "name": "Advanced Imaging Centers: Canton",
    "services": "Closed MRI, CT & X-Ray",
    "address": "2000 Village Professional Drive, Suite 100, Canton 30114",
    "category": "Imaging Facility",
    "markedGreen": false,
    "hours": "Monday-Friday 9AM-5PM",
    "language": "English",
    "rating": 3,
    "insurance": "",
    "lat": 34.172844,
    "lng": -84.550065
  },
  {
    "id": 7,
    "name": "Advanced Imaging Centers: Norcross",
    "services": "Closed MRI",
    "address": "6050 Peachtree Parkway, Suite 400, Peachtree Corners 30092",
    "category": "Imaging Facility",
    "markedGreen": false,
    "hours": "Monday-Friday 9AM-5PM",
    "language": "English",
    "rating": 1,
    "insurance": "",
    "lat": 33.953449,
    "lng": -84.231789
  },
  {
    "id": 8,
    "name": "Advanced Imaging Centers: Kennestone",
    "services": "Open MRI",
    "address": "335 Roselane St NW, Suite 103, Marietta 30060",
    "category": "Imaging Facility",
    "markedGreen": false,
    "hours": "Monday-Friday 9AM-5PM",
    "language": "English",
    "rating": 2,
    "insurance": "",
    "lat": 33.968944,
    "lng": -84.557479
  },
  {
    "id": 9,
    "name": "Advanced Imaging Centers: Fayetteville",
    "services": "Open MRI, CT & X-Ray",
    "address": "1233 HWY 54, Suite 110, Fayetteville 30214",
    "category": "Imaging Facility",
    "markedGreen": false,
    "hours": "Monday-Friday 9AM-5PM",
    "language": "English",
    "rating": 3,
    "insurance": "",
    "lat": 33.451902,
    "lng": -84.506003
  },
  {
    "id": 10,
    "name": "American Health Imaging of Rome",
    "services": "MRI & CT Scans:",
    "address": "16 Riverbend Dr. Rome, GA 30161",
    "category": "Imaging Facility",
    "markedGreen": false,
    "hours": "Monday-Friday 9AM-5PM",
    "language": "English",
    "rating": 1,
    "insurance": "",
    "lat": 34.247769,
    "lng": -85.164168
  },
  {
    "id": 11,
    "name": "American Health Imaging of Athens",
    "services": "MRI & CT Scans:",
    "address": "1063 Baxter Street Athens, GA 30606",
    "category": "Imaging Facility",
    "markedGreen": false,
    "hours": "Monday-Friday 9AM-5PM",
    "language": "English",
    "rating": 2,
    "insurance": "",
    "lat": 33.94666,
    "lng": -83.398654
  },
  {
    "id": 12,
    "name": "American Health Imaging - Albany",
    "services": "MRI & CT Scans:",
    "address": "2624 Dawson Road Albany, GA 31707",
    "category": "Imaging Facility",
    "markedGreen": false,
    "hours": "Monday-Friday 9AM-5PM",
    "language": "English",
    "rating": 3,
    "insurance": "",
    "lat": 31.616399,
    "lng": -84.220987
  },
  {
    "id": 13,
    "name": "ImageLink (Monroe)- do not do CT scans",
    "services": "MRI",
    "address": "333 Alcovy St Ste 9, Monroe, GA 30655",
    "category": "Imaging Facility",
    "markedGreen": false,
    "hours": "Monday-Friday 9AM-5PM",
    "language": "English",
    "rating": 1,
    "insurance": "",
    "lat": 33.783044,
    "lng": -83.716442
  },
  {
    "id": 14,
    "name": "ImageLink (Stockbridge)- do not do CT scans",
    "services": "MRI",
    "address": "131 N Park Trail, Stockbridge, GA 30281",
    "category": "Imaging Facility",
    "markedGreen": false,
    "hours": "Monday-Friday 9AM-5PM",
    "language": "English",
    "rating": 2,
    "insurance": "",
    "lat": 33.512578,
    "lng": -84.231239
  },
  {
    "id": 15,
    "name": "ImageLink (Decatur)- do not do CT scans",
    "services": "MRI",
    "address": "2801 N Decatur Rd #100, Decatur, GA 30033",
    "category": "Imaging Facility",
    "markedGreen": true,
    "hours": "Monday-Friday 9AM-5PM",
    "language": "English",
    "rating": 3,
    "insurance": "",
    "lat": 33.792997,
    "lng": -84.277832
  },
  {
    "id": 16,
    "name": "ImageLink (Lithia Spring)- do not do CT scans",
    "services": "MRI",
    "address": "900 Thornton Rd, Lithia Springs, GA 30122",
    "category": "Imaging Facility",
    "markedGreen": false,
    "hours": "Monday-Friday 9AM-5PM",
    "language": "English",
    "rating": 1,
    "insurance": "",
    "lat": 33.780344,
    "lng": -84.605938
  },
  {
    "id": 17,
    "name": "Spine Center MRI",
    "services": "MRI and CT scans",
    "address": "3161 Howell Mill Rd NW, Atlanta, GA 30327",
    "category": "Imaging Facility",
    "markedGreen": false,
    "hours": "Monday-Sunday 9AM-5PM",
    "language": "Russian",
    "rating": 2,
    "insurance": "",
    "lat": 33.841189,
    "lng": -84.427063
  },
  {
    "id": 18,
    "name": "American Health Imaging Gainesville",
    "services": "MRI and CT scans",
    "address": "1640 Jesse Jewell Pkwy SE Ste 2, Gainesville, GA 30501",
    "category": "Imaging Facility",
    "markedGreen": false,
    "hours": "Monday-Friday 9AM-5PM",
    "language": "Russian",
    "rating": 3,
    "insurance": "",
    "lat": 34.284948,
    "lng": -83.845157
  },
  {
    "id": 19,
    "name": "American Health Imaging Athens",
    "services": "MRI",
    "address": "2485 Jefferson Rd #104, Athens, GA 30606",
    "category": "Imaging Facility",
    "markedGreen": false,
    "hours": "Monday-Friday 9AM-5PM",
    "language": "English",
    "rating": 1,
    "insurance": "",
    "lat": 33.973821,
    "lng": -83.415036
  },
  {
    "id": 20,
    "name": "American Health Imaging Augusta",
    "services": "MRI",
    "address": "1211 W Medical Park Rd, Augusta, GA 30909",
    "category": "Imaging Facility",
    "markedGreen": false,
    "hours": "Monday-Friday 9AM-5PM",
    "language": "English",
    "rating": 2,
    "insurance": "",
    "lat": 33.481111,
    "lng": -82.089146
  },
  {
    "id": 21,
    "name": "DO NOT SEND - AllSpine Open MRI - Stockbridge",
    "services": "Open MRI",
    "address": "900 Eagles Landing Pkwy a, Stockbridge, GA 30281",
    "category": "Imaging Facility",
    "markedGreen": false,
    "hours": "Monday-Friday 9AM-5PM",
    "language": "English",
    "rating": 3,
    "insurance": "",
    "lat": 33.512894,
    "lng": -84.219039
  },
  {
    "id": 22,
    "name": "Medrad Imaging Center - Macon",
    "services": "MRI",
    "address": "1818 Forsyth St Ste 100, Macon, GA 31201",
    "category": "Imaging Facility",
    "markedGreen": false,
    "hours": "Monday-Friday 9AM-5PM",
    "language": "English",
    "rating": 1,
    "insurance": "",
    "lat": 32.839581,
    "lng": -83.648105
  },
  {
    "id": 23,
    "name": "American Health Imaging-Conyers",
    "services": "MRI and CT scans",
    "address": "1501 Milstead Road, Suite 140, Conyers, GA 30012",
    "category": "Imaging Facility",
    "markedGreen": false,
    "hours": "Monday-Friday 9AM-5PM",
    "language": "English",
    "rating": 2,
    "insurance": "",
    "lat": 33.774439,
    "lng": -83.958976
  },
  {
    "id": 24,
    "name": "American Health Imaging of Fayetteville",
    "services": "MRI and Imaging",
    "address": "1240 Highway 54 W Bldg 400, Ste 402, Fayetteville, GA 30214",
    "category": "Imaging Facility",
    "markedGreen": false,
    "hours": "Monday-Friday 9AM-5PM",
    "language": "English",
    "rating": 3,
    "insurance": "",
    "lat": 33.449677,
    "lng": -84.506464
  },
  {
    "id": 25,
    "name": "American Health Imaging- Cumming",
    "services": "Imaging facility",
    "address": "1050 Haw Creek Pkwy Ste 100, Cumming, GA",
    "category": "Imaging Facility",
    "markedGreen": false,
    "hours": "Monday-Friday 9AM-5PM",
    "language": "English",
    "rating": 1,
    "insurance": "",
    "lat": 34.173591,
    "lng": -84.128718
  },
  {
    "id": 26,
    "name": "American Health Imaging of Hiram",
    "services": "Imaging Facility",
    "address": "4374 Atlanta Hwy Ste 125, Hiram, GA 30141",
    "category": "Imaging Facility",
    "markedGreen": false,
    "hours": "Monday-Friday 9AM-5PM",
    "language": "English",
    "rating": 2,
    "insurance": "",
    "lat": 33.902897,
    "lng": -84.77279
  },
  {
    "id": 27,
    "name": "Advanced Imaging Centers:\u00a0Lawrenceville",
    "services": "Closed MRI & CT",
    "address": "3653 Lawrenceville Highway, Suite 150\nLawrenceville, GA 30044",
    "category": "Imaging Facility",
    "markedGreen": false,
    "hours": "Monday-Friday 9AM-5PM",
    "language": "English",
    "rating": 3,
    "insurance": "",
    "lat": 33.909892,
    "lng": -84.103867
  },
  {
    "id": 28,
    "name": "Hope Imaging Center",
    "services": "Services: MRI,\u00a0CT,\u00a0X-Ray",
    "address": "3840 Peachtree Industrial Blvd. #140, Duluth, GA 30096",
    "category": "Imaging Facility",
    "markedGreen": false,
    "hours": "Monday-Friday 9AM-5PM",
    "language": "English",
    "rating": 1,
    "insurance": "",
    "lat": 33.9895,
    "lng": -84.169111
  },
  {
    "id": 29,
    "name": "ImageLink: Conyers",
    "services": "1.5 Closed MRI",
    "address": "1700 Honey Creek Commons, Suite B, Conyers, GA 30013",
    "category": "Imaging Facility",
    "markedGreen": true,
    "hours": "Monday-Friday 9AM-5PM",
    "language": "English",
    "rating": 2,
    "insurance": "",
    "lat": 33.592048,
    "lng": -84.013485
  },
  {
    "id": 30,
    "name": "Advanced Imaging Centers: Albany",
    "services": "Open MRI",
    "address": "2025 PALMYRA RD\nALBANY, GA 31701",
    "category": "Imaging Facility",
    "markedGreen": false,
    "hours": "Monday-Friday 9AM-5PM",
    "language": "English",
    "rating": 3,
    "insurance": "",
    "lat": 31.606151,
    "lng": -84.172381
  },
  {
    "id": 31,
    "name": "Advanced Imaging Centers: Columbus",
    "services": "Open MRI",
    "address": "1031 20TH ST.\nCOLUMBUS, GA 31901",
    "category": "Imaging Facility",
    "markedGreen": false,
    "hours": "Monday-Friday 9AM-5PM",
    "language": "English",
    "rating": 1,
    "insurance": "",
    "lat": 32.481874,
    "lng": -84.978081
  },
  {
    "id": 32,
    "name": "Advanced Imaging Centers:\u00a0GAINESVILLE",
    "services": "Open MRI",
    "address": "1990 LIMESTONE CIR\nGAINESVILLE, GA 30501",
    "category": "Imaging Facility",
    "markedGreen": false,
    "hours": "Monday-Friday 9AM-5PM",
    "language": "English",
    "rating": 2,
    "insurance": "",
    "lat": 34.321201,
    "lng": -83.803986
  },
  {
    "id": 33,
    "name": "Advanced Imaging Centers:\u00a0ROSWELL",
    "services": "Open MRI\n& 1.5T Wide Bore MRI",
    "address": "10630 ALPHARETTA HWY\nROSWELL, GA 30076",
    "category": "Imaging Facility",
    "markedGreen": false,
    "hours": "Monday-Friday 9AM-5PM",
    "language": "English",
    "rating": 3,
    "insurance": "",
    "lat": 34.039198,
    "lng": -84.343283
  },
  {
    "id": 34,
    "name": "Advanced Imaging Centers:\u00a0AUGUSTA",
    "services": "Open MRI",
    "address": "1306 TROUPE ST\nAUGUSTA, GA 30904",
    "category": "Imaging Facility",
    "markedGreen": false,
    "hours": "Monday-Sunday 9AM-5PM",
    "language": "Russian",
    "rating": 1,
    "insurance": "",
    "lat": 33.468356,
    "lng": -82.014101
  },
  {
    "id": 35,
    "name": "Advanced Imaging Centers:\u00a0COLUMBUS",
    "services": "Wide Bore + Open MRI",
    "address": "2040 10TH AVE\nCOLUMBUS, GA 31901",
    "category": "Imaging Facility",
    "markedGreen": false,
    "hours": "Monday-Friday 9AM-5PM",
    "language": "Russian",
    "rating": 2,
    "insurance": "",
    "lat": 32.482881,
    "lng": -84.979427
  },
  {
    "id": 36,
    "name": "Advanced Imaging Centers:\u00a0GRIFFIN",
    "services": "Wide Bore MRI",
    "address": "220 ROCK STREET\nGRIFFIN GA 30224",
    "category": "Imaging Facility",
    "markedGreen": false,
    "hours": "Monday-Friday 9AM-5PM",
    "language": "English",
    "rating": 3,
    "insurance": "",
    "lat": 33.23615,
    "lng": -84.267144
  },
  {
    "id": 37,
    "name": "Advanced Imaging Centers:\u00a0MONROE",
    "services": "Closed MRI",
    "address": "131 ALCOVY STREET\nSUITE 9\nMONROE, GA 30655",
    "category": "Imaging Facility",
    "markedGreen": false,
    "hours": "Monday-Friday 9AM-5PM",
    "language": "English",
    "rating": 1,
    "insurance": "",
    "lat": 33.79089,
    "lng": -83.712615
  },
  {
    "id": 38,
    "name": "Advanced Imaging Centers:\u00a0STONE MOUNTAIN",
    "services": "Open MRI",
    "address": "1805 PARKE PLAZA CIR SW\nSTE 101\nSTONE MOUNTAIN, GA\n30087",
    "category": "Imaging Facility",
    "markedGreen": false,
    "hours": "Monday-Friday 9AM-5PM",
    "language": "English",
    "rating": 2,
    "insurance": "",
    "lat": 33.825435,
    "lng": -84.114696
  },
  {
    "id": 39,
    "name": "Advanced Imaging Centers:\u00a0ATHENS",
    "services": "Open MRI",
    "address": "2500 DANIELLS BRIDGE RD\nBUILDING 200, STE 1 A\nATHENS, GA 30606",
    "category": "Imaging Facility",
    "markedGreen": false,
    "hours": "Monday-Friday 9AM-5PM",
    "language": "English",
    "rating": 3,
    "insurance": "",
    "lat": 33.908936,
    "lng": -83.459028
  },
  {
    "id": 40,
    "name": "Advanced Imaging Centers: DECATUR",
    "services": "Closed MRI",
    "address": "1376 CHURCH ST, #100\nDECATUR, GA 30030",
    "category": "Imaging Facility",
    "markedGreen": false,
    "hours": "Monday-Friday 9AM-5PM",
    "language": "English",
    "rating": 1,
    "insurance": "",
    "lat": 33.788147,
    "lng": -84.289726
  },
  {
    "id": 41,
    "name": "Advanced Imaging Centers:\u00a0GRIFFIN",
    "services": "Open MRI",
    "address": "655 WILL STREET\nGRIFFIN GA 30224",
    "category": "Imaging Facility",
    "markedGreen": false,
    "hours": "Monday-Friday 9AM-5PM",
    "language": "English",
    "rating": 2,
    "insurance": "",
    "lat": 33.236928,
    "lng": -84.267132
  },
  {
    "id": 42,
    "name": "Advanced Imaging Centers: MACON",
    "services": "Open MRI",
    "address": "4601 ARKWRIGHT ROAD\nMACON, GA 31210",
    "category": "Imaging Facility",
    "markedGreen": false,
    "hours": "Monday-Friday 9AM-5PM",
    "language": "English",
    "rating": 3,
    "insurance": "",
    "lat": 32.915026,
    "lng": -83.696379
  },
  {
    "id": 43,
    "name": "ImageLink:\u00a0 SUWANEE",
    "services": "Closed MRI & CT",
    "address": "4375 JOHNS CREEK PKWY\nSUITE 300\nSUWANEE, GA 30024",
    "category": "Imaging Facility",
    "markedGreen": true,
    "hours": "Monday-Friday 9AM-5PM",
    "language": "English",
    "rating": 1,
    "insurance": "",
    "lat": 34.071004,
    "lng": -84.174015
  },
  {
    "id": 44,
    "name": "Advanced Imaging Centers:\u00a0BUCKHEAD",
    "services": "1.5T Closed MRI",
    "address": "3200 DOWNWOOD CIRCLE\nNW SUITE 300\nATLANTA, GA 30327",
    "category": "Imaging Facility",
    "markedGreen": false,
    "hours": "Monday-Friday 9AM-5PM",
    "language": "English",
    "rating": 2,
    "insurance": "",
    "lat": 33.841776,
    "lng": -84.426432
  },
  {
    "id": 45,
    "name": "Advanced Imaging Centers: KENNESAW",
    "services": "Open MRI",
    "address": "3900 FREY ROAD, SUITE 106\nKENNESAW, GA 30144",
    "category": "Imaging Facility",
    "markedGreen": false,
    "hours": "Monday-Friday 9AM-5PM",
    "language": "English",
    "rating": 3,
    "insurance": "",
    "lat": 34.047983,
    "lng": -84.580006
  },
  {
    "id": 46,
    "name": "Advanced Imaging Centers: SAVANNAH",
    "services": "1.5T Closed MRI and X-\nRays",
    "address": "310 EISENHOWER DRIVE\nBUILDING 12 SUITE A\nSAVANNAH, GA 31406",
    "category": "Imaging Facility",
    "markedGreen": false,
    "hours": "Monday-Friday 9AM-5PM",
    "language": "English",
    "rating": 1,
    "insurance": "",
    "lat": 32.009973,
    "lng": -81.107331
  },
  {
    "id": 47,
    "name": "Advanced Imaging Centers: DULUTH",
    "services": "1.5 T Closed MRI, CT & X-\nRay",
    "address": "3840 PEACHTREE\nINDUSTRIAL BLVD.\nDULUTH GA 30096",
    "category": "Imaging Facility",
    "markedGreen": false,
    "hours": "Monday-Friday 9AM-5PM",
    "language": "English",
    "rating": 2,
    "insurance": "",
    "lat": 33.9895,
    "lng": -84.169111
  },
  {
    "id": 48,
    "name": "Advanced Imaging Centers: SAVANNAH",
    "services": "Open MRI",
    "address": "11700 MERCY BOULEVARD\n, SAVANNAH, GA 31419",
    "category": "Imaging Facility",
    "markedGreen": false,
    "hours": "Monday-Friday 9AM-5PM",
    "language": "English",
    "rating": 3,
    "insurance": "",
    "lat": 31.987503,
    "lng": -81.152122
  },
  {
    "id": 49,
    "name": "Advanced Imaging Centers: CHAMBLEE/TUCKER",
    "services": "Closed MRI",
    "address": "3286 BUCKEYE ROAD\nATLANTA, GA 30341",
    "category": "Imaging Facility",
    "markedGreen": false,
    "hours": "Monday-Friday 9AM-5PM",
    "language": "English",
    "rating": 1,
    "insurance": "",
    "lat": 33.885459,
    "lng": -84.258183
  },
  {
    "id": 50,
    "name": "Advanced Imaging Centers: GLENRIDGE",
    "services": "Wide-Bore MRI",
    "address": "5416 GLENRIDGE DRIVE\nATLANTA, GA 30342",
    "category": "Imaging Facility",
    "markedGreen": false,
    "hours": "Monday-Friday 9AM-5PM",
    "language": "English",
    "rating": 2,
    "insurance": "",
    "lat": 33.903151,
    "lng": -84.376083
  },
  {
    "id": 51,
    "name": "ImageLink:\u00a0 STOCKBRIDGE",
    "services": "Closed MRI",
    "address": "131 NORTH PARK TRAIL\nSTOCKBRIDGE, GA 30281",
    "category": "Imaging Facility",
    "markedGreen": true,
    "hours": "Monday-Sunday 9AM-5PM",
    "language": "Russian",
    "rating": 3,
    "insurance": "",
    "lat": 33.512578,
    "lng": -84.231239
  },
  {
    "id": 52,
    "name": "Advanced Imaging Centers: GAINESVILLE",
    "services": "Open MRI",
    "address": "800 JESSE JEWELL PKWY STE\n200 400\nGAINESVILLE, GA 30501",
    "category": "Imaging Facility",
    "markedGreen": false,
    "hours": "Monday-Friday 9AM-5PM",
    "language": "Russian",
    "rating": 1,
    "insurance": "",
    "lat": 34.292973,
    "lng": -83.832228
  },
  {
    "id": 53,
    "name": "Advanced Imaging Centers: LITHONIA",
    "services": "Open MRI",
    "address": "5700 HILLANDALE DRIVE,\nSUITE 150\nLITHONIA, GA 30058",
    "category": "Imaging Facility",
    "markedGreen": false,
    "hours": "Monday-Friday 9AM-5PM",
    "language": "English",
    "rating": 2,
    "insurance": "",
    "lat": 33.704189,
    "lng": -84.157039
  },
  {
    "id": 54,
    "name": "Advanced Imaging Centers: THOMSON",
    "services": "1.5T Open MRI",
    "address": "2516 UNIVERSITY DRIVE\nSUITE B\nTHOMSON GA 30824",
    "category": "Imaging Facility",
    "markedGreen": false,
    "hours": "Monday-Friday 9AM-5PM",
    "language": "English",
    "rating": 3,
    "insurance": "",
    "lat": 33.491518,
    "lng": -82.496446
  },
  {
    "id": 55,
    "name": "Amera Imaging - College Park",
    "services": "M-F: 8AM-8PM\nSaturday: 8AM-4PM",
    "address": "1903 Phoenix Boulevard, Suite 125, College Park, GA 30349",
    "category": "Imaging Facility",
    "markedGreen": false,
    "hours": "Monday-Friday 9AM-5PM",
    "language": "English",
    "rating": 1,
    "insurance": "",
    "lat": 33.614865,
    "lng": -84.448907
  },
  {
    "id": 56,
    "name": "American Health Imaging of Savannah",
    "services": "MRI, CT, DTI",
    "address": "30 Janet Dr Ste 101, Savannah, GA 31405",
    "category": "Imaging Facility",
    "markedGreen": false,
    "hours": "Monday-Friday 9AM-5PM",
    "language": "English",
    "rating": 2,
    "insurance": "",
    "lat": 32.023801,
    "lng": -81.110918
  },
  {
    "id": 57,
    "name": "ImageLink:\u00a0Lithia Springs",
    "services": "",
    "address": "900 Thornton Road, Suite A Lithia Springs, Georgia 30122",
    "category": "Imaging Facility",
    "markedGreen": true,
    "hours": "Monday-Friday 9AM-5PM",
    "language": "English",
    "rating": 3,
    "insurance": "",
    "lat": 33.780344,
    "lng": -84.605938
  },
  {
    "id": 58,
    "name": "American Health Imaging of Augusta",
    "services": "MRI, CT, ULTRASOUND, DTI",
    "address": "3152 Perimeter Pkwy\nBuilding 2 Unit B, Augusta, GA 30909",
    "category": "Imaging Facility",
    "markedGreen": false,
    "hours": "Monday-Friday 9AM-5PM",
    "language": "English",
    "rating": 1,
    "insurance": "",
    "lat": 33.491066,
    "lng": -82.089227
  },
  {
    "id": 59,
    "name": "American Health Imaging Brunswick",
    "services": "CT, DTI, MRI",
    "address": "1103 Fountain Lake Drive\nBrunswick, GA 31525-3039, USA",
    "category": "Imaging Facility",
    "markedGreen": false,
    "hours": "Monday-Friday 9AM-5PM",
    "language": "English",
    "rating": 2,
    "insurance": "",
    "lat": 31.188002,
    "lng": -81.470276
  },
  {
    "id": 60,
    "name": "American Health Imaging of Buckhead",
    "services": "CT, MRI, DTI, ULTRASOUND",
    "address": "60 Peachtree Park Drive NE, Suite 100\nAtlanta, GA 30309-1304, USA",
    "category": "Imaging Facility",
    "markedGreen": false,
    "hours": "Monday-Friday 9AM-5PM",
    "language": "English",
    "rating": 3,
    "insurance": "",
    "lat": 33.812652,
    "lng": -84.390137
  },
  {
    "id": 61,
    "name": "American Health Imaging of Canton",
    "services": "CT, MRI, ULTRASOUND, X-RAY",
    "address": "100 Liberty Boulevard, Suite 100\nCanton, GA 30114-2841, USA",
    "category": "Imaging Facility",
    "markedGreen": false,
    "hours": "Monday-Friday 9AM-5PM",
    "language": "English",
    "rating": 1,
    "insurance": "",
    "lat": 34.257495,
    "lng": -84.465564
  },
  {
    "id": 62,
    "name": "American Health Imaging of Decatur",
    "services": "CT, MRI, ULTRASOUND, DTI, X-RAY, OPEN MRI",
    "address": "2774 North Decatur Road\nDecatur, GA 30033-5910, USA",
    "category": "Imaging Facility",
    "markedGreen": false,
    "hours": "Monday-Friday 9AM-5PM",
    "language": "English",
    "rating": 2,
    "insurance": "",
    "lat": 33.793452,
    "lng": -84.280362
  },
  {
    "id": 63,
    "name": "American Health Imaging of Johns Creek",
    "services": "CT, MRI, ULTRASOUND",
    "address": "3921 Johns Creek Court, Suite B\nSuwanee, GA 30024-1252, USA",
    "category": "Imaging Facility",
    "markedGreen": false,
    "hours": "Monday-Friday 9AM-5PM",
    "language": "English",
    "rating": 3,
    "insurance": "",
    "lat": 34.068569,
    "lng": -84.163091
  },
  {
    "id": 64,
    "name": "American Health Imaging of Lawrenceville",
    "services": "CT, MRI, DTI, ULTRASOUND",
    "address": "481 West Pike Street\nLawrenceville, GA 30046-3245, USA",
    "category": "Imaging Facility",
    "markedGreen": false,
    "hours": "Monday-Friday 9AM-5PM",
    "language": "English",
    "rating": 1,
    "insurance": "",
    "lat": 33.961727,
    "lng": -84.005326
  },
  {
    "id": 65,
    "name": "American Health Imaging Marietta",
    "services": "CT, DTI, MRI, ULTRASOUND",
    "address": "796 Church Street NE, Suite 100\nMarietta, GA 30060-7228, USA",
    "category": "Imaging Facility",
    "markedGreen": false,
    "hours": "Monday-Friday 9AM-5PM",
    "language": "English",
    "rating": 2,
    "insurance": "",
    "lat": 33.971149,
    "lng": -84.549379
  },
  {
    "id": 66,
    "name": "American Health Imaging of Newnan",
    "services": "CT, MRI, ULTRASOUND",
    "address": "10 Mercantile Drive, Suite A\nNewnan, GA 30265, USA",
    "category": "Imaging Facility",
    "markedGreen": false,
    "hours": "Monday-Friday 9AM-5PM",
    "language": "English",
    "rating": 3,
    "insurance": "",
    "lat": 33.360949,
    "lng": -84.754046
  },
  {
    "id": 67,
    "name": "American Health Imaging of Sandy Springs",
    "services": "CT, DTI, MRI, ULTRASOUND",
    "address": "1200 Lake Hearn Dr NE, Suite 100\nAtlanta, GA 30319",
    "category": "Imaging Facility",
    "markedGreen": false,
    "hours": "Monday-Friday 9AM-5PM",
    "language": "English",
    "rating": 1,
    "insurance": "",
    "lat": 33.913378,
    "lng": -84.348431
  },
  {
    "id": 68,
    "name": "American Health Imaging West Cobb",
    "services": "CT, MRI, ULTRASOUND",
    "address": "2615 East-West Connector, Suite 122\nAustell, GA 30106-6848, USA",
    "category": "Imaging Facility",
    "markedGreen": false,
    "hours": "Monday-Sunday 9AM-5PM",
    "language": "Russian",
    "rating": 2,
    "insurance": "",
    "lat": 33.863008,
    "lng": -84.622652
  },
  {
    "id": 69,
    "name": "American Health Imaging Stand-Up MRI",
    "services": "OPEN MRI",
    "address": "6445 Powers Ferry Road, Suite 100\nAtlanta, GA 30339, USA",
    "category": "Imaging Facility",
    "markedGreen": false,
    "hours": "Monday-Friday 9AM-5PM",
    "language": "Russian",
    "rating": 3,
    "insurance": "",
    "lat": 33.904309,
    "lng": -84.433475
  },
  {
    "id": 70,
    "name": "American Health Imaging of Columbia",
    "services": "CTMRICARDIAC CALCIUM SCORINGNEUROQUANTMR ANGIOGRAMLOW DOSE LUNG SCREENING",
    "address": "1241 Assembly Street, Suite B\nColumbia, SC 29201, USA",
    "category": "Imaging Facility",
    "markedGreen": false,
    "hours": "Monday-Friday 9AM-5PM",
    "language": "English",
    "rating": 1,
    "insurance": "",
    "lat": 34.00178,
    "lng": -81.036108
  },
  {
    "id": 71,
    "name": "American Health Imaging of Greenville",
    "services": "CTMRIDTILow Dose Lung ScreeningCardiac Calcium ScoringNeuroquantMr Angiogramfaster scanning mriprostate mri",
    "address": "361 Woodruff Road\nGreenville, SC 29607, USA",
    "category": "Imaging Facility",
    "markedGreen": false,
    "hours": "Monday-Friday 9AM-5PM",
    "language": "English",
    "rating": 2,
    "insurance": "",
    "lat": 34.834831,
    "lng": -82.339085
  },
  {
    "id": 72,
    "name": "American Health Imaging of Greenville Downtown",
    "services": "CTCardiac Calcium ScoringLow Dose Lung Screeningfaster scanning mriMRIUltrasoundDTINeuroquantprostate mri",
    "address": "1306 South Church St, Suite 200\nGreenville, SC, 29605",
    "category": "Imaging Facility",
    "markedGreen": false,
    "hours": "Monday-Friday 9AM-5PM",
    "language": "English",
    "rating": 3,
    "insurance": "",
    "lat": 34.833967,
    "lng": -82.403347
  },
  {
    "id": 73,
    "name": "American Health Imaging of Irmo",
    "services": "CTMRINeuroquantDTICardiac Calcium ScoringMr Angiogram",
    "address": "1245 Lake Murray Boulevard, Suite B\nIrmo, SC 29063, USA",
    "category": "Imaging Facility",
    "markedGreen": false,
    "hours": "Monday-Friday 9AM-5PM",
    "language": "English",
    "rating": 1,
    "insurance": "",
    "lat": 34.085978,
    "lng": -81.182267
  },
  {
    "id": 74,
    "name": "American Health Imaging Mt. Pleasant",
    "services": "CTMRICardiac Calcium ScoringLow Dose Lung ScreeningDTINeuroquant",
    "address": "1172 US Highway 41, Suite 103\nMt. Pleasant, SC 29466, USA",
    "category": "Imaging Facility",
    "markedGreen": false,
    "hours": "Monday-Friday 9AM-5PM",
    "language": "English",
    "rating": 2,
    "insurance": "",
    "lat": 32.861587,
    "lng": -79.797138
  },
  {
    "id": 75,
    "name": "American Health Imaging of Summerville",
    "services": "CTMRICardiac Calcium ScoringLow Dose Lung ScreeningNeuroquantMr Angiogram",
    "address": "902 Nexton Square Drive\nSummerville, SC 29486, USA",
    "category": "Imaging Facility",
    "markedGreen": false,
    "hours": "Monday-Friday 9AM-5PM",
    "language": "English",
    "rating": 3,
    "insurance": "",
    "lat": 33.041372,
    "lng": -80.141669
  },
  {
    "id": 76,
    "name": "American Health Imaging of West Columbia",
    "services": "CTMRIOpen MriNeuroquantMr AngiogramCardiac Calcium ScoringLow Dose Lung Screening",
    "address": "3020 Sunset Boulevard, Suite 105\nWest Columbia , SC 29169, USA",
    "category": "Imaging Facility",
    "markedGreen": false,
    "hours": "Monday-Friday 9AM-5PM",
    "language": "English",
    "rating": 1,
    "insurance": "",
    "lat": 34.006819,
    "lng": -81.1215
  },
  {
    "id": 77,
    "name": "American Health Imaging-\u00a0Douglasville",
    "services": "CT, MRI",
    "address": "9459 Highway 5, Suite R, Douglasville, GA,30135",
    "category": "Imaging Facility",
    "markedGreen": false,
    "hours": "Monday-Friday 9AM-5PM",
    "language": "English",
    "rating": 2,
    "insurance": "",
    "lat": 33.725697,
    "lng": -84.76427
  },
  {
    "id": 78,
    "name": "Amera Imaging-\u00a0Stockbridge",
    "services": "high-quality MRI, X-ray, and advanced neuroimaging services",
    "address": "210 Medical Blvd, Stockbridge, GA 30281",
    "category": "Imaging Facility",
    "markedGreen": false,
    "hours": "Monday-Friday 9AM-5PM",
    "language": "English",
    "rating": 3,
    "insurance": "",
    "lat": 33.512724,
    "lng": -84.224689
  },
  {
    "id": 79,
    "name": "Atlanta Pain Clinic",
    "services": "Pain Management",
    "address": "3000 Corporate Center Dr, Morrow, GA 30260",
    "category": "Pain Management",
    "markedGreen": true,
    "hours": "Monday-Friday 9AM-5PM",
    "language": "Russian",
    "rating": 1,
    "insurance": "",
    "lat": 33.571401,
    "lng": -84.331346
  },
  {
    "id": 80,
    "name": "Back Pain & Relief / Norcross",
    "services": "Pain Management",
    "address": "5955 Jimmy Carter Blvd #40, Norcross, GA 30071",
    "category": "Pain Management",
    "markedGreen": false,
    "hours": "Monday-Friday 9AM-5PM",
    "language": "English",
    "rating": 2,
    "insurance": "",
    "lat": 33.922446,
    "lng": -84.212002
  },
  {
    "id": 81,
    "name": "Spine Center of Atlanta (Savannah)",
    "services": "Pain Management, Spine Surgery",
    "address": "310 Eisenhower Dr STE 12B, Savannah, GA 31406",
    "category": "Pain Management",
    "markedGreen": false,
    "hours": "Monday-Friday 9AM-5PM",
    "language": "English",
    "rating": 3,
    "insurance": "",
    "lat": 32.009973,
    "lng": -81.107331
  },
  {
    "id": 82,
    "name": "Spine Center of Atlanta (Augusta)",
    "services": "Pain Management",
    "address": "3614 J Dewey Gray Cir. Unit A, Augusta, GA 30909",
    "category": "Pain Management",
    "markedGreen": false,
    "hours": "Monday-Friday 9AM-5PM",
    "language": "English",
    "rating": 1,
    "insurance": "",
    "lat": 33.48413,
    "lng": -82.093647
  },
  {
    "id": 83,
    "name": "Spine Center of Atlanta (Conyers)",
    "services": "Pain Management",
    "address": "1501 Milstead Rd NE #160, Conyers, GA 30012",
    "category": "Pain Management",
    "markedGreen": false,
    "hours": "Monday-Friday 9AM-5PM",
    "language": "English",
    "rating": 2,
    "insurance": "",
    "lat": 33.774439,
    "lng": -83.958976
  },
  {
    "id": 84,
    "name": "Summit Spine and Joints Center:\u00a0Decatur",
    "services": "Pain Management",
    "address": "484 Irvin Ct Suite 110, Decatur, Georgia 30030",
    "category": "Pain Management",
    "markedGreen": true,
    "hours": "Monday-Friday 9AM-5PM",
    "language": "English",
    "rating": 3,
    "insurance": "",
    "lat": 33.790245,
    "lng": -84.278412
  },
  {
    "id": 85,
    "name": "Summit Spine and Joints Center:\u00a0Marietta",
    "services": "Pain Management",
    "address": "4800 Olde Towne Pkwy, Suite 110, Marietta, Georgia 30068",
    "category": "Pain Management",
    "markedGreen": false,
    "hours": "Monday-Friday 9AM-5PM",
    "language": "English",
    "rating": 1,
    "insurance": "",
    "lat": 33.968621,
    "lng": -84.41283
  },
  {
    "id": 86,
    "name": "Summit Spine and Joints Center:\u00a0Lithonia/Stonecrest",
    "services": "Pain Management",
    "address": "5900 Hillandale Drive Suite 320, Lithonia/Stonecrest, Georgia 30058",
    "category": "Pain Management",
    "markedGreen": false,
    "hours": "Monday-Friday 9AM-5PM",
    "language": "English",
    "rating": 2,
    "insurance": "",
    "lat": 33.705668,
    "lng": -84.14853
  },
  {
    "id": 87,
    "name": "Summit Spine and Joints Center:\u00a0Snellville",
    "services": "Pain Management",
    "address": "1780 Oak Road Suite A2, Snellville, Georgia 30078",
    "category": "Pain Management",
    "markedGreen": false,
    "hours": "Monday-Friday 9AM-5PM",
    "language": "English",
    "rating": 3,
    "insurance": "",
    "lat": 33.869622,
    "lng": -84.032542
  },
  {
    "id": 88,
    "name": "Summit Spine and Joints Center:\u00a0Roswell",
    "services": "Pain Management",
    "address": "1357 Hembree Rd Ste 220, Roswell, Georgia 30076",
    "category": "Pain Management",
    "markedGreen": false,
    "hours": "Monday-Friday 9AM-5PM",
    "language": "English",
    "rating": 1,
    "insurance": "",
    "lat": 34.060374,
    "lng": -84.316861
  },
  {
    "id": 89,
    "name": "Summit Spine and Joints Center:\u00a0Lawrenceville",
    "services": "Pain Management",
    "address": "455 Philip Blvd Bldg. 100, Ste. 140, Lawrenceville, Georgia 30046",
    "category": "Pain Management",
    "markedGreen": false,
    "hours": "Monday-Friday 9AM-5PM",
    "language": "English",
    "rating": 2,
    "insurance": "",
    "lat": 33.968352,
    "lng": -84.010593
  },
  {
    "id": 90,
    "name": "Summit Spine and Joints Center:\u00a0Suwanee/Johns Creek",
    "services": "Pain Management",
    "address": "3905 Johns Creek Ct Suite 200, Suwanee/Johns Creek, Georgia 30024",
    "category": "Pain Management",
    "markedGreen": false,
    "hours": "Monday-Friday 9AM-5PM",
    "language": "English",
    "rating": 3,
    "insurance": "",
    "lat": 34.06904,
    "lng": -84.164744
  },
  {
    "id": 91,
    "name": "Summit Spine and Joints Center:\u00a0Canton",
    "services": "Pain Management",
    "address": "100 Liberty Blvd Suite 210, Canton, Georgia 30114",
    "category": "Pain Management",
    "markedGreen": false,
    "hours": "Monday-Friday 9AM-5PM",
    "language": "English",
    "rating": 1,
    "insurance": "",
    "lat": 34.257495,
    "lng": -84.465564
  },
  {
    "id": 92,
    "name": "Summit Spine and Joints Center:\u00a0Cumming",
    "services": "Pain Management",
    "address": "1200 Bald Ridge Marina Rd Suite 150, Cumming, Georgia 30041",
    "category": "Pain Management",
    "markedGreen": false,
    "hours": "Monday-Friday 9AM-5PM",
    "language": "English",
    "rating": 2,
    "insurance": "",
    "lat": 34.210481,
    "lng": -84.116305
  },
  {
    "id": 93,
    "name": "Summit Spine and Joints Center:\u00a0Braselton",
    "services": "Pain Management",
    "address": "1255 Friendship Rd. Suite 150, Braselton/Buford, Georgia 30517",
    "category": "Pain Management",
    "markedGreen": false,
    "hours": "Monday-Friday 9AM-5PM",
    "language": "English",
    "rating": 3,
    "insurance": "",
    "lat": 34.121634,
    "lng": -83.831635
  },
  {
    "id": 94,
    "name": "Summit Spine and Joints Center:\u00a0Carrollton",
    "services": "Pain Management",
    "address": "526 Bankhead Hwy Suites 101 & 102, Carrollton, Georgia 30117",
    "category": "Pain Management",
    "markedGreen": false,
    "hours": "Monday-Friday 9AM-5PM",
    "language": "English",
    "rating": 1,
    "insurance": "",
    "lat": 33.586903,
    "lng": -85.059017
  },
  {
    "id": 95,
    "name": "Summit Spine and Joints Center:\u00a0Dalton",
    "services": "Pain Management",
    "address": "1504 N. Thornton Ave Ste 103, Dalton, Georgia 30720",
    "category": "Pain Management",
    "markedGreen": false,
    "hours": "Monday-Sunday 9AM-5PM",
    "language": "Russian",
    "rating": 2,
    "insurance": "",
    "lat": 34.793904,
    "lng": -84.981754
  },
  {
    "id": 96,
    "name": "Summit Spine and Joints Center:\u00a0Jasper",
    "services": "Pain Management",
    "address": "49 Gordon Road, Suite 10, Jasper, Georgia 30143",
    "category": "Pain Management",
    "markedGreen": false,
    "hours": "Monday-Friday 9AM-5PM",
    "language": "Russian",
    "rating": 3,
    "insurance": "",
    "lat": 34.466162,
    "lng": -84.446588
  },
  {
    "id": 97,
    "name": "Summit Spine and Joints Center:\u00a0Gainesville",
    "services": "Pain Management",
    "address": "466 Green Street, Gainesville, Georgia 30501",
    "category": "Pain Management",
    "markedGreen": false,
    "hours": "Monday-Friday 9AM-5PM",
    "language": "English",
    "rating": 1,
    "insurance": "",
    "lat": 34.306596,
    "lng": -83.825721
  },
  {
    "id": 98,
    "name": "Summit Spine and Joints Center:\u00a0Ft Oglethorpe",
    "services": "Pain Management",
    "address": "955 Battlefield Parkway, Ft Oglethorpe, Georgia 30742",
    "category": "Pain Management",
    "markedGreen": false,
    "hours": "Monday-Friday 9AM-5PM",
    "language": "English",
    "rating": 2,
    "insurance": "",
    "lat": 34.953715,
    "lng": -85.248715
  },
  {
    "id": 99,
    "name": "Summit Spine and Joints Center:\u00a0Woodstock",
    "services": "Pain Management",
    "address": "120 Stonebridge Parkway Suite #440, Woodstock, Georgia 30189",
    "category": "Pain Management",
    "markedGreen": false,
    "hours": "Monday-Friday 9AM-5PM",
    "language": "English",
    "rating": 3,
    "insurance": "",
    "lat": 34.100118,
    "lng": -84.537207
  },
  {
    "id": 100,
    "name": "Summit Spine and Joints Center: Winder",
    "services": "Pain Management",
    "address": "314 N Broad St #210",
    "category": "Pain Management",
    "markedGreen": false,
    "hours": "Monday-Friday 9AM-5PM",
    "language": "English",
    "rating": 1,
    "insurance": "",
    "lat": 34.0081,
    "lng": -83.707852
  },
  {
    "id": 101,
    "name": "Summit Spine and Joints Center: Rome",
    "services": "Pain Management",
    "address": "18 Riverbend Dr SW #120",
    "category": "Pain Management",
    "markedGreen": false,
    "hours": "Monday-Friday 9AM-5PM",
    "language": "English",
    "rating": 2,
    "insurance": "",
    "lat": 34.248201,
    "lng": -85.164225
  },
  {
    "id": 102,
    "name": "Summit Spine and Joint Center (Commerce )",
    "services": "Pain Management",
    "address": "142 Hampton Ct Commerce Georgia 30529",
    "category": "Pain Management",
    "markedGreen": false,
    "hours": "Monday-Friday 9AM-5PM",
    "language": "English",
    "rating": 3,
    "insurance": "",
    "lat": 34.252116,
    "lng": -83.46052
  },
  {
    "id": 103,
    "name": "Summit Spine and Joint Center (Buford)",
    "services": "Pain Management",
    "address": "4700 GA-20 Suite 125, Buford, Georgia 30518",
    "category": "Pain Management",
    "markedGreen": false,
    "hours": "Monday-Friday 9AM-5PM",
    "language": "English",
    "rating": 1,
    "insurance": "",
    "lat": 34.10145,
    "lng": -84.022671
  },
  {
    "id": 104,
    "name": "Summit Spine and Joint Centers",
    "services": "Pain Management, Spine Surgery",
    "address": "830 Eagles Landing Pkwy\nStockbridge Georgia 30281",
    "category": "Pain Management",
    "markedGreen": false,
    "hours": "Monday-Friday 9AM-5PM",
    "language": "English",
    "rating": 2,
    "insurance": "",
    "lat": 33.513555,
    "lng": -84.215922
  },
  {
    "id": 105,
    "name": "Axion- Alpharetta",
    "services": "PM services and neuro surgeries",
    "address": "4165 Old Milton Pkwy #170 West\nThe Swan Building, Alpharetta, GA 30005",
    "category": "Pain Management",
    "markedGreen": false,
    "hours": "Monday-Friday 9AM-5PM",
    "language": "English",
    "rating": 3,
    "insurance": "",
    "lat": 34.059105,
    "lng": -84.238291
  },
  {
    "id": 106,
    "name": "Axion-\u00a0Sandy Springs / Atlanta",
    "services": "PM services and neuro surgeries",
    "address": "960 Johnson Ferry Rd NE, Suite 336\nAtlanta, GA 30342",
    "category": "Pain Management",
    "markedGreen": false,
    "hours": "Monday-Friday 9AM-5PM",
    "language": "English",
    "rating": 1,
    "insurance": "",
    "lat": 33.908573,
    "lng": -84.355938
  },
  {
    "id": 107,
    "name": "Summit Spine and Joint Centers - Carrolton",
    "services": "Pain Management",
    "address": "526 Bankhead Highway Suite 101 Carrollton, GA",
    "category": "Pain Management",
    "markedGreen": false,
    "hours": "Monday-Friday 9AM-5PM",
    "language": "English",
    "rating": 2,
    "insurance": "",
    "lat": 33.586903,
    "lng": -85.059017
  },
  {
    "id": 108,
    "name": "Summit Spine - Athens",
    "services": "Pain Management",
    "address": "658 N Chase St #101, Athens, GA 30601",
    "category": "Pain Management",
    "markedGreen": false,
    "hours": "Monday-Friday 9AM-5PM",
    "language": "English",
    "rating": 3,
    "insurance": "",
    "lat": 33.963043,
    "lng": -83.393034
  },
  {
    "id": 109,
    "name": "OrthoPooler (PM &\u00a0OPEN MRI)",
    "services": "Orthopedic and Pain Management provider.\u00a0OPEN MRI",
    "address": "421 Pooler Parkway, Suite 100 \nPooler, GA, 31322",
    "category": "Pain Management",
    "markedGreen": false,
    "hours": "Monday-Friday 9AM-5PM",
    "language": "English",
    "rating": 1,
    "insurance": "",
    "lat": 32.136232,
    "lng": -81.250592
  },
  {
    "id": 110,
    "name": "Ortho Pooler (Statesboro)-PM&\u00a0OPEN MRI",
    "services": "Orthopedic and Pain Management provider,\u00a0OPEN MRI",
    "address": "2 Ed Moore Court \nStatesboro, GA, 30458",
    "category": "Pain Management",
    "markedGreen": false,
    "hours": "Monday-Friday 9AM-5PM",
    "language": "English",
    "rating": 2,
    "insurance": "",
    "lat": 32.433378,
    "lng": -81.778046
  },
  {
    "id": 111,
    "name": "Advance Pain Management",
    "services": "Pain management",
    "address": "2950 Stone Hogan Connector Road S.W. \nBuilding A, Suite B \nAtlanta, GA 30331",
    "category": "Pain Management",
    "markedGreen": false,
    "hours": "Monday-Friday 9AM-5PM",
    "language": "English",
    "rating": 3,
    "insurance": "",
    "lat": 33.676393,
    "lng": -84.496432
  },
  {
    "id": 112,
    "name": "Summit Spine & Joint Centers,\u00a0Savannah",
    "services": "Pain Management",
    "address": "7414 Hodgson Memorial Dr Suite A, \nSavannah, GA 31406",
    "category": "Pain Management",
    "markedGreen": false,
    "hours": "Monday-Sunday 9AM-5PM",
    "language": "Russian",
    "rating": 1,
    "insurance": "",
    "lat": 31.997471,
    "lng": -81.113778
  },
  {
    "id": 113,
    "name": "South Atlanta Pain and Rehab (Macon)",
    "services": "Pain Management",
    "address": "1818 Forsyth St, Macon, GA 31201",
    "category": "Pain Management",
    "markedGreen": false,
    "hours": "Monday-Friday 9AM-5PM",
    "language": "Russian",
    "rating": 2,
    "insurance": "",
    "lat": 32.839581,
    "lng": -83.648105
  },
  {
    "id": 114,
    "name": "South Atlanta Pain and Rehab (Midtown)",
    "services": "Pain Management",
    "address": "2320 Marietta Blvd NW, Atlanta, GA 30318",
    "category": "Pain Management",
    "markedGreen": true,
    "hours": "Monday-Friday 9AM-5PM",
    "language": "English",
    "rating": 3,
    "insurance": "",
    "lat": 33.820162,
    "lng": -84.453653
  },
  {
    "id": 115,
    "name": "Summit Spine in Newnan",
    "services": "Pain Management",
    "address": "39C Oak Hill Ct Suite 101\nNewnan, GA 30265",
    "category": "Pain Management",
    "markedGreen": false,
    "hours": "Monday-Friday 9AM-5PM",
    "language": "English",
    "rating": 1,
    "insurance": "",
    "lat": 33.40092,
    "lng": -84.711398
  },
  {
    "id": 116,
    "name": "Summit Spine - Augusta",
    "services": "Pain Management",
    "address": "1008 Druid Park Ave Suite 101, Augusta, GA 30901",
    "category": "Pain Management",
    "markedGreen": false,
    "hours": "Monday-Friday 9AM-5PM",
    "language": "English",
    "rating": 2,
    "insurance": "",
    "lat": 33.474299,
    "lng": -81.995947
  },
  {
    "id": 117,
    "name": "SAPR - Griffin",
    "services": "Pain Management",
    "address": "686 S 8th St, Griffin, GA 30224",
    "category": "Pain Management",
    "markedGreen": true,
    "hours": "Monday-Friday 9AM-5PM",
    "language": "English",
    "rating": 3,
    "insurance": "",
    "lat": 33.236533,
    "lng": -84.265442
  },
  {
    "id": 118,
    "name": "Phoenix Ortho Injury Spine & Extremity",
    "services": "Pain Management",
    "address": "1805 Parke Plaza Circle, Suite 101\n\nStone Mountain, GA 30087",
    "category": "Pain Management",
    "markedGreen": true,
    "hours": "Monday-Friday 9AM-5PM",
    "language": "English",
    "rating": 1,
    "insurance": "",
    "lat": 33.825435,
    "lng": -84.114696
  },
  {
    "id": 119,
    "name": "Phoenix Ortho - Duluth",
    "services": "Pain Management",
    "address": "3194 Buford Highway NE, Suite 100\nDuluth, GA 30096",
    "category": "Pain Management",
    "markedGreen": true,
    "hours": "Monday-Friday 9AM-5PM",
    "language": "English",
    "rating": 2,
    "insurance": "",
    "lat": 33.999332,
    "lng": -84.145686
  },
  {
    "id": 120,
    "name": "Summit Spine and Joint Center -\u00a0Cartersville",
    "services": "Pain Management",
    "address": "300 Courtyard Drive Suite B\nCartersville GA 30120",
    "category": "Pain Management",
    "markedGreen": false,
    "hours": "Monday-Friday 9AM-5PM",
    "language": "English",
    "rating": 3,
    "insurance": "",
    "lat": 34.191225,
    "lng": -84.791369
  },
  {
    "id": 121,
    "name": "Phoenix Ortho-Macon",
    "services": "Pain Management",
    "address": "230 Sheraton Blvd Suite A\n\nMacon, GA 31201",
    "category": "Pain Management",
    "markedGreen": false,
    "hours": "Monday-Friday 9AM-5PM",
    "language": "English",
    "rating": 1,
    "insurance": "",
    "lat": 32.920762,
    "lng": -83.705565
  },
  {
    "id": 122,
    "name": "Phoenix Ortho-\u00a0Dublin",
    "services": "Pain Management",
    "address": "230 Industrial Blvd Suite B\n\nDublin, GA 31021",
    "category": "Pain Management",
    "markedGreen": false,
    "hours": "Monday-Friday 9AM-5PM",
    "language": "English",
    "rating": 2,
    "insurance": "",
    "lat": 32.530304,
    "lng": -82.946654
  },
  {
    "id": 123,
    "name": "Phoenix Ortho- Warner Robins, GA",
    "services": "Pain Management",
    "address": "100 Jim Mason Ct Suite A\n\nWarner Robins, GA 31088",
    "category": "Pain Management",
    "markedGreen": false,
    "hours": "Monday-Friday 9AM-5PM",
    "language": "English",
    "rating": 3,
    "insurance": "",
    "lat": 32.612704,
    "lng": -83.700177
  },
  {
    "id": 124,
    "name": "Phoenix Ortho- Chattanooga, TN",
    "services": "Pain Management",
    "address": "6141 Shallowford Road\n\nChattanooga, TN 37421",
    "category": "Pain Management",
    "markedGreen": false,
    "hours": "Monday-Friday 9AM-5PM",
    "language": "English",
    "rating": 1,
    "insurance": "",
    "lat": 35.054757,
    "lng": -85.17986
  },
  {
    "id": 125,
    "name": "Phoenix Ortho-Oak Ridge, TN",
    "services": "Pain Management",
    "address": "103 Donner Drive\n\nOak Ridge, TN 37830",
    "category": "Pain Management",
    "markedGreen": false,
    "hours": "Monday-Friday 9AM-5PM",
    "language": "English",
    "rating": 2,
    "insurance": "",
    "lat": 36.021615,
    "lng": -84.222358
  },
  {
    "id": 126,
    "name": "Phoenix Ortho-Cleveland, TN",
    "services": "Pain Management",
    "address": "2550 Business Park Dr NE\n\nCleveland, TN 37311",
    "category": "Pain Management",
    "markedGreen": false,
    "hours": "Monday-Friday 9AM-5PM",
    "language": "English",
    "rating": 3,
    "insurance": "",
    "lat": 35.17418,
    "lng": -84.855647
  },
  {
    "id": 127,
    "name": "Phoenix Ortho- Knoxville, TN",
    "services": "Pain Management",
    "address": "11416 Grigsby Chapel Road\n\nKnoxville, TN 37934",
    "category": "Pain Management",
    "markedGreen": false,
    "hours": "Monday-Friday 9AM-5PM",
    "language": "English",
    "rating": 1,
    "insurance": "",
    "lat": 35.892762,
    "lng": -84.173812
  },
  {
    "id": 128,
    "name": "Phoenix Ortho-Flowood, MS",
    "services": "Pain Management",
    "address": "120 Stone Creek Blvd Ste 500\n\nFlowood, MS 39232",
    "category": "Pain Management",
    "markedGreen": false,
    "hours": "Monday-Friday 9AM-5PM",
    "language": "English",
    "rating": 2,
    "insurance": "",
    "lat": 32.334602,
    "lng": -90.093183
  },
  {
    "id": 129,
    "name": "Phoenix Ortho-Meridian, MS",
    "services": "Pain Management",
    "address": "1001 14th Street\n\nMeridian, MS 39301",
    "category": "Pain Management",
    "markedGreen": false,
    "hours": "Monday-Sunday 9AM-5PM",
    "language": "Russian",
    "rating": 3,
    "insurance": "",
    "lat": 32.370351,
    "lng": -88.689047
  },
  {
    "id": 130,
    "name": "Phoenix Ortho- Hattiesburg, MS",
    "services": "Pain Management",
    "address": "7125 US Hwy 98 W\n\nHattiesburg, MS 39402",
    "category": "Pain Management",
    "markedGreen": false,
    "hours": "Monday-Friday 9AM-5PM",
    "language": "Russian",
    "rating": 1,
    "insurance": "",
    "lat": 31.31392,
    "lng": -89.462552
  },
  {
    "id": 131,
    "name": "Phoenix- Griffin, GA",
    "services": "Pain Management",
    "address": "868 S 8th Street \n\nGriffin, GA 30224",
    "category": "Pain Management",
    "markedGreen": false,
    "hours": "Monday-Friday 9AM-5PM",
    "language": "English",
    "rating": 2,
    "insurance": "",
    "lat": 33.230474,
    "lng": -84.265812
  },
  {
    "id": 132,
    "name": "Precision Injury Care-\u00a0Lawrenceville",
    "services": "Chiropractic\nPhysical Therapy, and \nPain Management",
    "address": "555 Old Norcross Rd Suite 210\nLawrenceville, GA 30046",
    "category": "Pain Management",
    "markedGreen": true,
    "hours": "Monday-Friday 9AM-5PM",
    "language": "English",
    "rating": 3,
    "insurance": "",
    "lat": 33.959583,
    "lng": -84.006849
  },
  {
    "id": 133,
    "name": "Precision Injury Care \u2013 CAMP CREEK/ATLANTA",
    "services": "Multi-discipline provider:\n\u2022 Chiropractic\n\u2022 Physical Therapy, and \n\u2022 Pain Management",
    "address": "2300 Camp Creek Pkwy\nSuite 200\nAtlanta, GA 30337",
    "category": "Pain Management",
    "markedGreen": true,
    "hours": "Monday-Friday 9AM-5PM",
    "language": "English",
    "rating": 1,
    "insurance": "",
    "lat": 33.648663,
    "lng": -84.465691
  },
  {
    "id": 134,
    "name": "Trident Medical Centers (Athens/Bogart/Watkinsville)",
    "services": "Multi-discipline provider:\n\u2022 Chiropractic\n\u2022 Physical Therapy, and \n\u2022 Pain Management",
    "address": "2092 Prince Ave\nBuilding B\nAthens, GA 30606",
    "category": "Pain Management",
    "markedGreen": true,
    "hours": "Monday-Friday 9AM-5PM",
    "language": "English",
    "rating": 2,
    "insurance": "",
    "lat": 33.970094,
    "lng": -83.409354
  },
  {
    "id": 135,
    "name": "Titan Injury Centers-Hinesville",
    "services": "Multi-discipline provider:\n\u2022 Chiropractic\n\u2022 Physical Therapy, and \n\u2022 Pain Management",
    "address": "1146 Elma G. Miles Parkway\nSuite 103\nHinesville, GA 31313",
    "category": "Pain Management",
    "markedGreen": true,
    "hours": "Monday-Friday 9AM-5PM",
    "language": "English",
    "rating": 3,
    "insurance": "",
    "lat": 31.822995,
    "lng": -81.630258
  },
  {
    "id": 136,
    "name": "Titan Injury Centers-Garden City",
    "services": "Multi-discipline provider:\n\u2022 Chiropractic\n\u2022 Physical Therapy, and \n\u2022 Pain Management",
    "address": "109 Minus Ave\nUnit C-2\nGarden City, GA\n31408",
    "category": "Pain Management",
    "markedGreen": true,
    "hours": "Monday-Friday 9AM-5PM",
    "language": "English",
    "rating": 1,
    "insurance": "",
    "lat": 32.103894,
    "lng": -81.146659
  },
  {
    "id": 137,
    "name": "Titan Injury Centers-Savannah",
    "services": "Multi-discipline provider:\n\u2022 Chiropractic\n\u2022 Physical Therapy, and \n\u2022 Pain Management",
    "address": "7205 Hodgson Memorial Dr.\nSavannah, GA\n31406",
    "category": "Pain Management",
    "markedGreen": true,
    "hours": "Monday-Friday 9AM-5PM",
    "language": "English",
    "rating": 2,
    "insurance": "",
    "lat": 32.003643,
    "lng": -81.111831
  },
  {
    "id": 138,
    "name": "Titan Injury Centers-Brunswick",
    "services": "Multi-discipline provider:\n\u2022 Chiropractic\n\u2022 Physical Therapy, and \n\u2022 Pain Management",
    "address": "3365 Cypress Mill Rd\nBrunswick, GA\n31520",
    "category": "Pain Management",
    "markedGreen": true,
    "hours": "Monday-Friday 9AM-5PM",
    "language": "English",
    "rating": 3,
    "insurance": "",
    "lat": 31.19478,
    "lng": -81.479746
  },
  {
    "id": 139,
    "name": "Summit Spine & Joint Center-\u00a0Columbus",
    "services": "Pain Management",
    "address": "1846 Warm Springs Rd\nSuite 101\nColumbus GA 31904",
    "category": "Pain Management",
    "markedGreen": false,
    "hours": "Monday-Friday 9AM-5PM",
    "language": "English",
    "rating": 1,
    "insurance": "",
    "lat": 32.495336,
    "lng": -84.964147
  },
  {
    "id": 140,
    "name": "Summit Spine and Joints Center : Lithia Springs",
    "services": "Pain Management",
    "address": "870 Crestmark Drive Suite 201\nLithia Springs GA 30122",
    "category": "Pain Management",
    "markedGreen": false,
    "hours": "Monday-Friday 9AM-5PM",
    "language": "English",
    "rating": 2,
    "insurance": "",
    "lat": 33.780361,
    "lng": -84.610222
  },
  {
    "id": 141,
    "name": "Georgia Spine & Orthopaedics (GSO)- Atlanta office",
    "services": "Multi-discipline provider, offering: \n(Injections, EMG, Mhbot )\nOrthopedics\nPain Management\nNeurology\nPhysical Therapy\no Dr. Erik Bendiks (Spine)\no Dr. Stanley Tao (Ortho Extremity)\no Dr. Daryl Figa (Spine, Pain Management)\no Quentin Jenkins PA-C (Spine, Neuro)",
    "address": "6160 Peachtree Dunwoody Rd, A-100 Atlanta, GA 30328",
    "category": "Pain Management",
    "markedGreen": false,
    "hours": "Monday-Friday 9AM-5PM",
    "language": "English",
    "rating": 3,
    "insurance": "",
    "lat": 33.923272,
    "lng": -84.352721
  },
  {
    "id": 142,
    "name": "Georgia Spine & Orthopaedics (GSO)- Dalton office",
    "services": "Multi-discipline provider, offering:\n(Injections)\nOrthopedics\nPain Management\nNeurology\nPhysical Therapy\no Joe Montes De Oca NP (Spine, Pain Management)",
    "address": "1237 N Glenwood Ave\nDalton, GA 30721",
    "category": "Pain Management",
    "markedGreen": false,
    "hours": "Monday-Friday 9AM-5PM",
    "language": "English",
    "rating": 1,
    "insurance": "",
    "lat": 34.792765,
    "lng": -84.962665
  },
  {
    "id": 143,
    "name": "Georgia Spine & Orthopaedics (GSO)- Stockbridge office",
    "services": "Multi-discipline provider, offering:\n(Injections,\u00a0Mhbot)\nOrthopedics\nPain Management\nNeurology\nPhysical Therapy\no Dr. Vinson Smith (Ortho Extremity)\no Nicholas Caputo PA-C (Spine, Neuro)\no Joe Montes De Oca NP (Spine, Pain Management)\no Jennifer Morrison PA-C (Spine, Neuro)",
    "address": "175 Country Club Dr\nBldg 100, Suite E\nStockbridge, GA 30281",
    "category": "Pain Management",
    "markedGreen": false,
    "hours": "Monday-Friday 9AM-5PM",
    "language": "English",
    "rating": 2,
    "insurance": "",
    "lat": 33.505489,
    "lng": -84.225673
  },
  {
    "id": 144,
    "name": "Georgia Spine & Orthopaedics (GSO)- College Park office",
    "services": "Multi-discipline provider, offering:\n(Injections)\nOrthopedics\nPain Management\nNeurology\nPhysical Therapy\no Dr. Vinson Smith (Ortho Extremity)\no Dr. Daryl Figa (Spine, Pain Management)\no Nicholas Caputo PA-C (Spine, Neuro)",
    "address": "2300 Camp Creek Pkwy\nSuite 150\nCollege Park, GA 30337",
    "category": "Pain Management",
    "markedGreen": false,
    "hours": "Monday-Friday 9AM-5PM",
    "language": "English",
    "rating": 3,
    "insurance": "",
    "lat": 33.648663,
    "lng": -84.465691
  },
  {
    "id": 145,
    "name": "Georgia Spine & Orthopaedics (GSO)- Marietta office",
    "services": "Multi-discipline provider, offering:\nMhbot\nOrthopedics\nPain Management\nNeurology\nPhysical Therapy\no Dr. Stanley Tao (Ortho Extremity)\no Quentin Jenkins PA-C (Spine, Neuro)",
    "address": "50 Plaza Way\nSuite C\nMarietta, GA 30060",
    "category": "Pain Management",
    "markedGreen": false,
    "hours": "Monday-Friday 9AM-5PM",
    "language": "English",
    "rating": 1,
    "insurance": "",
    "lat": 33.971267,
    "lng": -84.553238
  },
  {
    "id": 146,
    "name": "Georgia Spine & Orthopaedics (GSO)- Suwanee office",
    "services": "Multi-discipline provider, offering:\n(Injections)\nOrthopedics\nPain Management\nNeurology\nPhysical Therapy\no Dr. Stanley Tao (Ortho Extremity)\no Dr. Daryl Figa (Spine, Pain Management)\no Joe Montes De Oca NP (Spine, Pain Management)",
    "address": "1490 Distribution Dr\n#150\nSuwanee, GA 30024",
    "category": "Pain Management",
    "markedGreen": false,
    "hours": "Monday-Sunday 9AM-5PM",
    "language": "Russian",
    "rating": 2,
    "insurance": "",
    "lat": 34.002514,
    "lng": -84.076972
  },
  {
    "id": 147,
    "name": "Georgia Spine & Orthopaedics (GSO)- Columbus office",
    "services": "Multi-discipline provider, offering:\n(Injections, Mhbot)\nOrthopedics\nPain Management\nNeurology\nPhysical Therapy\no Dr. Vinson Smith (Ortho Extremity)\no Dr. Daryl Figa (Spine, Pain Management)\no Nicholas Caputo PA-C (Spine, Neuro)\no Jennifer Morrison PA-C (Spine, Neuro)",
    "address": "1345 13th St\nSuite Q\nColumbus, GA 31901",
    "category": "Pain Management",
    "markedGreen": false,
    "hours": "Monday-Friday 9AM-5PM",
    "language": "Russian",
    "rating": 3,
    "insurance": "",
    "lat": 32.47213,
    "lng": -84.972104
  },
  {
    "id": 148,
    "name": "Georgia Spine & Orthopaedics (GSO)- Roswell office",
    "services": "Multi-discipline provider, offering:\nOrthopedics\nPain Management\nNeurology\nPhysical Therapy\no Dr. Erik Bendiks (Spine)\no Dr. Stanley Tao (Ortho Extremity)\no Dr. Daryl Figa (Spine, Pain Management)\no Quentin Jenkins PA-C (Spine, Neuro)",
    "address": "11650 Alpharetta HWY\n#100\nRoswell, GA 30076",
    "category": "Pain Management",
    "markedGreen": false,
    "hours": "Monday-Friday 9AM-5PM",
    "language": "English",
    "rating": 1,
    "insurance": "",
    "lat": 34.063046,
    "lng": -84.323419
  },
  {
    "id": 149,
    "name": "Georgia Spine & Orthopaedics (GSO)- Tucker office",
    "services": "Multi-discipline provider, offering:\n(Injections, Mhbot)\nOrthopedics\nPain Management\nNeurology\nPhysical Therapy\no Dr. Vinson Smith (Ortho Extremity)\no Nicholas Caputo PA-C (Spine, Neuro)\no Joe Montes De Oca NP (Spine, Pain Management)",
    "address": "1350 Montreal Rd E\n#290\nTucker, GA 30084",
    "category": "Pain Management",
    "markedGreen": false,
    "hours": "Monday-Friday 9AM-5PM",
    "language": "English",
    "rating": 2,
    "insurance": "",
    "lat": 33.823023,
    "lng": -84.251455
  },
  {
    "id": 150,
    "name": "Integrated Pain Solutions (Summit Spine) - Asheboro Clinic",
    "services": "Pain management",
    "address": "610 North Fayetteville Street\nSuite 106\nAsheboro, NC 27203",
    "category": "Pain Management",
    "markedGreen": false,
    "hours": "Monday-Friday 9AM-5PM",
    "language": "English",
    "rating": 3,
    "insurance": "",
    "lat": 35.715136,
    "lng": -79.810971
  },
  {
    "id": 151,
    "name": "Integrated Pain Solutions (Summit Spine) Fayetteville Clinic",
    "services": "Pain management",
    "address": "2149 Valleygate Drive\nSuite 201\nFayetteville, NC 28304",
    "category": "Pain Management",
    "markedGreen": false,
    "hours": "Monday-Friday 9AM-5PM",
    "language": "English",
    "rating": 1,
    "insurance": "",
    "lat": 35.04042,
    "lng": -78.913489
  },
  {
    "id": 152,
    "name": "Integrated Pain Solutions (Summit Spine)- Jacksonville Clinic",
    "services": "Pain management",
    "address": "3145 Henderson Drive\nJacksonville, NC 28546",
    "category": "Pain Management",
    "markedGreen": false,
    "hours": "Monday-Friday 9AM-5PM",
    "language": "English",
    "rating": 2,
    "insurance": "",
    "lat": 34.791388,
    "lng": -77.419429
  },
  {
    "id": 153,
    "name": "Integrated Pain Solutions (Summit Spine) Laurinburg Clinic",
    "services": "Pain management",
    "address": "515 Lauchwood Drive\nLaurinburg, NC 28352",
    "category": "Pain Management",
    "markedGreen": false,
    "hours": "Monday-Friday 9AM-5PM",
    "language": "English",
    "rating": 3,
    "insurance": "",
    "lat": 34.750911,
    "lng": -79.469555
  },
  {
    "id": 154,
    "name": "Integrated Pain Solutions (Summit Spine) - Laurinburg Clinic",
    "services": "Pain management",
    "address": "704 A Progress Place\nLaurinburg, NC 28352",
    "category": "Pain Management",
    "markedGreen": false,
    "hours": "Monday-Friday 9AM-5PM",
    "language": "English",
    "rating": 1,
    "insurance": "",
    "lat": 34.750779,
    "lng": -79.461973
  },
  {
    "id": 155,
    "name": "Integrated Pain Solutions (Summit Spine) - Rockingham Clinic",
    "services": "Pain management",
    "address": "921 E. Broad Avenue\nRockingham, NC 28379",
    "category": "Pain Management",
    "markedGreen": false,
    "hours": "Monday-Friday 9AM-5PM",
    "language": "English",
    "rating": 2,
    "insurance": "",
    "lat": 34.927186,
    "lng": -79.757162
  },
  {
    "id": 156,
    "name": "Integrated Pain Solutions (Summit Spine)- Southern Pines Clinic",
    "services": "Pain management",
    "address": "695 S. Bennett Street\nSouthern Pines, NC 28352",
    "category": "Pain Management",
    "markedGreen": false,
    "hours": "Monday-Friday 9AM-5PM",
    "language": "English",
    "rating": 3,
    "insurance": "",
    "lat": 35.169808,
    "lng": -79.400781
  },
  {
    "id": 157,
    "name": "Integrated Pain Solutions (Summit Spine)- Whiteville Clinic",
    "services": "Pain management",
    "address": "800 Jefferson Street\nSuite 102\nWhiteville, NC 28472",
    "category": "Pain Management",
    "markedGreen": false,
    "hours": "Monday-Friday 9AM-5PM",
    "language": "English",
    "rating": 2,
    "insurance": "",
    "lat": 34.338513,
    "lng": -78.686323
  },
  {
    "id": 158,
    "name": "Integrated Pain Solutions (Summit Spine) - Wilmington Clinic",
    "services": "Pain management",
    "address": "2909 Market Street\nWilmington, NC 28403",
    "category": "Pain Management",
    "markedGreen": false,
    "hours": "Monday-Friday 9AM-5PM",
    "language": "English",
    "rating": 3,
    "insurance": "",
    "lat": 34.239853,
    "lng": -77.908486
  },
  {
    "id": 159,
    "name": "Summit Spine-\u00a0Greenville SC",
    "services": "Pain management",
    "address": "5 Stevens Street Suite 250\nGreenville SC 29605",
    "category": "Pain Management",
    "markedGreen": false,
    "hours": "Monday-Friday 9AM-5PM",
    "language": "English",
    "rating": 1,
    "insurance": "",
    "lat": 34.765803,
    "lng": -82.349265
  },
  {
    "id": 160,
    "name": "Summit Spine & Joint Centers",
    "services": "Pain management",
    "address": "5 Stevens Street Suite 250\nGreenville SC 29605",
    "category": "Pain Management",
    "markedGreen": false,
    "hours": "Monday-Friday 9AM-5PM",
    "language": "English",
    "rating": 2,
    "insurance": "",
    "lat": 34.765803,
    "lng": -82.349265
  },
  {
    "id": 161,
    "name": "Summit Spine & Joint Centers-\u00a0Spartanburg SC",
    "services": "Pain management",
    "address": "Summit Spine\n775 Spartan Blvd. Unit 202\nSpartanburg SC 29301",
    "category": "Pain Management",
    "markedGreen": false,
    "hours": "Monday-Friday 9AM-5PM",
    "language": "English",
    "rating": 3,
    "insurance": "",
    "lat": 34.941573,
    "lng": -81.996775
  },
  {
    "id": 162,
    "name": "Summit Spine & Joint Centers - Chattanooga",
    "services": "Pain management",
    "address": "1949 Gunbarrel Road Suite 206\nChattanooga, TN 37421",
    "category": "Pain Management",
    "markedGreen": false,
    "hours": "Monday-Friday 9AM-5PM",
    "language": "English",
    "rating": 1,
    "insurance": "",
    "lat": 35.029837,
    "lng": -85.156864
  },
  {
    "id": 163,
    "name": "Phoenix Ortho- Savannah",
    "services": "Ortho and PM",
    "address": "6606 Abercorn St, Ste 101, Savannah, GA 31405",
    "category": "Pain Management",
    "markedGreen": false,
    "hours": "Monday-Friday 9AM-5PM",
    "language": "English",
    "rating": 2,
    "insurance": "",
    "lat": 32.016605,
    "lng": -81.111659
  },
  {
    "id": 164,
    "name": "Phoenix Ortho - Richmond Hill",
    "services": "Ortho and PM",
    "address": "3760 US Hwy 17\nRichmond HIll, GA 31324",
    "category": "Pain Management",
    "markedGreen": false,
    "hours": "Monday-Friday 9AM-5PM",
    "language": "English",
    "rating": 2,
    "insurance": "",
    "lat": 31.933323,
    "lng": -81.325676
  },
  {
    "id": 165,
    "name": "Phoenix Ortho-Hinesville",
    "services": "Ortho and PM",
    "address": "604 W Oglethorpe Hwy, Hinesville, GA 31313",
    "category": "Pain Management",
    "markedGreen": false,
    "hours": "Monday-Friday 9AM-5PM",
    "language": "English",
    "rating": 3,
    "insurance": "",
    "lat": 31.832171,
    "lng": -81.596462
  },
  {
    "id": 166,
    "name": "Phoenix Ortho-Jesup",
    "services": "Ortho and PM",
    "address": "1907 Sunset Blvd, Jesup, GA 31545",
    "category": "Pain Management",
    "markedGreen": false,
    "hours": "Monday-Friday 9AM-5PM",
    "language": "English",
    "rating": 1,
    "insurance": "",
    "lat": 31.587107,
    "lng": -81.913768
  },
  {
    "id": 167,
    "name": "SAPR",
    "services": "",
    "address": "860 Hampton Rd, McDonough, GA 30253",
    "category": "Pain Management",
    "markedGreen": false,
    "hours": "Monday-Friday 9AM-5PM",
    "language": "English",
    "rating": 2,
    "insurance": "",
    "lat": 33.43416,
    "lng": -84.173402
  },
  {
    "id": 168,
    "name": "Phoenix Orho-Macon",
    "services": "Ortho and PM",
    "address": "155 Franklin St, Macon, GA 31201",
    "category": "Pain Management",
    "markedGreen": false,
    "hours": "Monday-Friday 9AM-5PM",
    "language": "English",
    "rating": 3,
    "insurance": "",
    "lat": 32.843611,
    "lng": -83.632726
  },
  {
    "id": 169,
    "name": "Phoenix Ortho- Sandy Springs",
    "services": "Ortho and PM",
    "address": "7000 Peachtree Dunwoody Rd, Bldg 17 Suite 120, Atlanta, GA 30328",
    "category": "Pain Management",
    "markedGreen": false,
    "hours": "Monday-Friday 9AM-5PM",
    "language": "English",
    "rating": 1,
    "insurance": "",
    "lat": 33.945936,
    "lng": -84.353544
  },
  {
    "id": 170,
    "name": "SouthPoint Ortho and Spine",
    "services": "Ortho and PM",
    "address": "72 W Candler St Suite 200, Winder, GA 30680",
    "category": "Pain Management",
    "markedGreen": false,
    "hours": "Monday-Friday 9AM-5PM",
    "language": "English",
    "rating": 2,
    "insurance": "",
    "lat": 33.994479,
    "lng": -83.722631
  },
  {
    "id": 171,
    "name": "Greene Neurological and Medical Consulting",
    "services": "Neurology and concussion treatment",
    "address": "5975 Shiloh Road, Suite 114 Alpharetta, GA 30005, USA",
    "category": "Neurology",
    "markedGreen": false,
    "hours": "Monday-Friday 9AM-5PM",
    "language": "Russian",
    "rating": 1,
    "insurance": "",
    "lat": 34.11701,
    "lng": -84.200926
  },
  {
    "id": 172,
    "name": "Atlanta Neuro Care",
    "services": "Neurology and concussion treatment",
    "address": "1368 Wellbrook Cir NE suite a, Conyers, GA 30012",
    "category": "Neurology",
    "markedGreen": false,
    "hours": "Monday-Friday 9AM-5PM",
    "language": "English",
    "rating": 2,
    "insurance": "",
    "lat": 33.678266,
    "lng": -84.001107
  },
  {
    "id": 173,
    "name": "TBI Diagnostic Centers of GA-Decatur",
    "services": "Neurology and concussion treatment",
    "address": "4284 Memorial Dr. Unit A Decatur, GA 30032",
    "category": "Neurology",
    "markedGreen": false,
    "hours": "Monday-Friday 9AM-5PM",
    "language": "English",
    "rating": 3,
    "insurance": "",
    "lat": 33.774164,
    "lng": -84.249119
  },
  {
    "id": 174,
    "name": "TBI Diagnostic Centers of GA-\u00a0College Park",
    "services": "Neurology and concussion treatment",
    "address": "4751 Best Road Suite 177 College Park, GA 30337",
    "category": "Neurology",
    "markedGreen": false,
    "hours": "Monday-Friday 9AM-5PM",
    "language": "English",
    "rating": 1,
    "insurance": "",
    "lat": 33.626004,
    "lng": -84.458711
  },
  {
    "id": 175,
    "name": "TBI Diagnostic Centers of GA-Norcross",
    "services": "Neurology and concussion treatment",
    "address": "3295 River Exchange Drive Suite 585, Norcross, GA 30092",
    "category": "Neurology",
    "markedGreen": false,
    "hours": "Monday-Friday 9AM-5PM",
    "language": "English",
    "rating": 2,
    "insurance": "",
    "lat": 33.969507,
    "lng": -84.26196
  },
  {
    "id": 176,
    "name": "TBI Diagnostic Centers of GA-Suwanee",
    "services": "Neurology and concussion treatment",
    "address": "500 Buford Highway NE Suite 1001 Suwanee",
    "category": "Neurology",
    "markedGreen": false,
    "hours": "Monday-Friday 9AM-5PM",
    "language": "English",
    "rating": 3,
    "insurance": "",
    "lat": 34.052861,
    "lng": -84.069152
  },
  {
    "id": 177,
    "name": "Fidelity Healthcare",
    "services": "Chiropractic Care",
    "address": "1100 Spring St. Suite 700, Atlanta, Ga 30309",
    "category": "Chiropractic Care",
    "markedGreen": false,
    "hours": "Monday-Friday 9AM-5PM",
    "language": "Russian",
    "rating": 1,
    "insurance": "",
    "lat": 33.784773,
    "lng": -84.389909
  },
  {
    "id": 178,
    "name": "Active Healthcare & Rehab",
    "services": "Chiropractic Care",
    "address": "900 N Hairston Rd, Stone Mountain, GA 30083",
    "category": "Chiropractic Care",
    "markedGreen": false,
    "hours": "Monday-Friday 9AM-5PM",
    "language": "English",
    "rating": 2,
    "insurance": "",
    "lat": 33.80418,
    "lng": -84.19446
  },
  {
    "id": 179,
    "name": "Dr. Nicholas Carlisle, DC\nAtlanta Spinal Health, LLC (Jonesboro)",
    "services": "Chiropractic Care",
    "address": "217 Arrowhead Blvd suite A2 Unit 23 Jonesboro, Ga 30236",
    "category": "Chiropractic Care",
    "markedGreen": false,
    "hours": "Monday-Friday 9AM-5PM",
    "language": "English",
    "rating": 3,
    "insurance": "",
    "lat": 33.578235,
    "lng": -84.383422
  },
  {
    "id": 180,
    "name": "Summit Health Clinic",
    "services": "Chiropractic Care",
    "address": "231 Maxham Rd. Ste. 110, Austell, Ga 30284",
    "category": "Chiropractic Care",
    "markedGreen": false,
    "hours": "Monday-Friday 9AM-5PM",
    "language": "English",
    "rating": 1,
    "insurance": "",
    "lat": 33.340908,
    "lng": -84.291148
  },
  {
    "id": 181,
    "name": "Summit Health Clinic",
    "services": "Chiropractic Care",
    "address": "929 Cobb Pkwy N #101, Marietta, GA 30062",
    "category": "Chiropractic Care",
    "markedGreen": false,
    "hours": "Monday-Friday 9AM-5PM",
    "language": "English",
    "rating": 2,
    "insurance": "",
    "lat": 33.973255,
    "lng": -84.54248
  },
  {
    "id": 182,
    "name": "Injury2Health",
    "services": "Chiropractic Care",
    "address": "3655 Cherokee St NW, Kennesaw, Ga 30144",
    "category": "Chiropractic Care",
    "markedGreen": false,
    "hours": "Monday-Friday 9AM-5PM",
    "language": "English",
    "rating": 3,
    "insurance": "",
    "lat": 34.042467,
    "lng": -84.603057
  },
  {
    "id": 183,
    "name": "Collin Chiropractic",
    "services": "Chiropractic Care",
    "address": "4965 Lanier Islands Pkwy, Suite 103 Buford, Georgia 30518",
    "category": "Chiropractic Care",
    "markedGreen": false,
    "hours": "Monday-Friday 9AM-5PM",
    "language": "Russian",
    "rating": 1,
    "insurance": "",
    "lat": 34.144825,
    "lng": -83.955543
  },
  {
    "id": 184,
    "name": "Murray Medical & Chiro",
    "services": "Chiropractic Care",
    "address": "4760 Austell Rd, Austell, Ga 30126",
    "category": "Chiropractic Care",
    "markedGreen": false,
    "hours": "Monday-Friday 9AM-5PM",
    "language": "English",
    "rating": 2,
    "insurance": "",
    "lat": 33.818421,
    "lng": -84.554912
  },
  {
    "id": 185,
    "name": "Dream Medical Center",
    "services": "Chiropractic Care",
    "address": "1355 Terrell Mill Rd SE Bldg 1484 Suite 100 Marietta, Ga 30067",
    "category": "Chiropractic Care",
    "markedGreen": false,
    "hours": "Monday-Friday 9AM-5PM",
    "language": "English",
    "rating": 3,
    "insurance": "",
    "lat": 33.918084,
    "lng": -84.465232
  },
  {
    "id": 186,
    "name": "Mosley Health Center",
    "services": "Chiropractic Care",
    "address": "5051 Warm Springs Rd Ste A, Columbus, Ga 31909",
    "category": "Chiropractic Care",
    "markedGreen": false,
    "hours": "Monday-Friday 9AM-5PM",
    "language": "English",
    "rating": 1,
    "insurance": "",
    "lat": 32.533193,
    "lng": -84.908086
  },
  {
    "id": 187,
    "name": "Premier Health Chiropractic-Macon Spine and Injury",
    "services": "Chiropractic Care",
    "address": "155 Franklin St, Macon, Ga. 31201",
    "category": "Chiropractic Care",
    "markedGreen": true,
    "hours": "Monday-Friday 9AM-5PM",
    "language": "English",
    "rating": 2,
    "insurance": "",
    "lat": 32.843611,
    "lng": -83.632726
  },
  {
    "id": 188,
    "name": "Griffin Spine & Injury",
    "services": "Chiropractic Care",
    "address": "686 S 8th St, Griffin, GA 30224",
    "category": "Chiropractic Care",
    "markedGreen": false,
    "hours": "Monday-Friday 9AM-5PM",
    "language": "English",
    "rating": 3,
    "insurance": "",
    "lat": 33.236533,
    "lng": -84.265442
  },
  {
    "id": 189,
    "name": "Alleviation Wellness Chiropractic",
    "services": "Chiropractic Care",
    "address": "9559 Highway 5 Suite 204, Douglasville, GA 30135",
    "category": "Chiropractic Care",
    "markedGreen": false,
    "hours": "Monday-Friday 9AM-5PM",
    "language": "Russian",
    "rating": 1,
    "insurance": "",
    "lat": 33.723734,
    "lng": -84.764181
  },
  {
    "id": 190,
    "name": "Leslie Tucker DC Chiropractic",
    "services": "Chiropractic Care",
    "address": "610 Shorter Ave NW Ste 23, Rome, GA 30165",
    "category": "Chiropractic Care",
    "markedGreen": false,
    "hours": "Monday-Friday 9AM-5PM",
    "language": "English",
    "rating": 2,
    "insurance": "",
    "lat": 34.267097,
    "lng": -85.199756
  },
  {
    "id": 191,
    "name": "Gwinnett Medical Back & Neck Pain",
    "services": "Chiropractic Care",
    "address": "5860 Jimmy Carter Blvd, Suite 110, Norcross, GA 30071",
    "category": "Chiropractic Care",
    "markedGreen": false,
    "hours": "Monday-Friday 9AM-5PM",
    "language": "English",
    "rating": 3,
    "insurance": "",
    "lat": 33.919979,
    "lng": -84.21136
  },
  {
    "id": 192,
    "name": "Gwinnett Medical Back & Neck Pain",
    "services": "Chiropractic Care",
    "address": "911 Duluth Highway, Suit D-7, Lawrenceville, GA 30043",
    "category": "Chiropractic Care",
    "markedGreen": false,
    "hours": "Monday-Friday 9AM-5PM",
    "language": "English",
    "rating": 1,
    "insurance": "",
    "lat": 33.969529,
    "lng": -84.022999
  },
  {
    "id": 193,
    "name": "Gwinnett Medical Back & Neck Pain",
    "services": "Chiropractic Care",
    "address": "3725 Stone Mountain Highway Suite A Snellville GA 30039",
    "category": "Chiropractic Care",
    "markedGreen": false,
    "hours": "Monday-Friday 9AM-5PM",
    "language": "English",
    "rating": 2,
    "insurance": "",
    "lat": 33.84317,
    "lng": -84.059461
  },
  {
    "id": 194,
    "name": "Spine Align Center",
    "services": "Chiropractic Care",
    "address": "1195 Fairburn Rd SW, Atlanta, GA 30331",
    "category": "Chiropractic Care",
    "markedGreen": false,
    "hours": "Monday-Friday 9AM-5PM",
    "language": "English",
    "rating": 3,
    "insurance": "",
    "lat": 33.72186,
    "lng": -84.509275
  },
  {
    "id": 195,
    "name": "Warner Robins Spine and Injury",
    "services": "Chiropractic Care",
    "address": "104 Whiting Way, Warner Robins, GA 31088",
    "category": "Chiropractic Care",
    "markedGreen": false,
    "hours": "Monday-Friday 9AM-5PM",
    "language": "Russian",
    "rating": 1,
    "insurance": "",
    "lat": 32.614677,
    "lng": -83.683062
  },
  {
    "id": 196,
    "name": "Coweta Chiropractic",
    "services": "Chiropractic Care",
    "address": "1201 Lower Fayetteville Rd, Newnan, GA 30265",
    "category": "Chiropractic Care",
    "markedGreen": false,
    "hours": "Monday-Friday 9AM-5PM",
    "language": "English",
    "rating": 2,
    "insurance": "",
    "lat": 33.375653,
    "lng": -84.751005
  },
  {
    "id": 197,
    "name": "Cooper Healthcare",
    "services": "Chiropractor care",
    "address": "1720 Phoenix Boulevard Suite 500 College Park, GA 30349",
    "category": "Chiropractic Care",
    "markedGreen": false,
    "hours": "Monday-Friday 9AM-5PM",
    "language": "English",
    "rating": 3,
    "insurance": "",
    "lat": 33.614064,
    "lng": -84.445602
  },
  {
    "id": 198,
    "name": "Planet Chiropractic",
    "services": "Chiropractic Care",
    "address": "2173 Fairburn Road\nDouglasville, GA 30135",
    "category": "Chiropractic Care",
    "markedGreen": false,
    "hours": "Monday-Friday 9AM-5PM",
    "language": "English",
    "rating": 1,
    "insurance": "",
    "lat": 33.745537,
    "lng": -84.697289
  },
  {
    "id": 199,
    "name": "HealthChoice Chiropractic Center",
    "services": "Chiropractic Care",
    "address": "14 Eastbrook Bend #201, Peachtree City, GA 30269",
    "category": "Chiropractic Care",
    "markedGreen": false,
    "hours": "Monday-Friday 9AM-5PM",
    "language": "English",
    "rating": 2,
    "insurance": "",
    "lat": 33.410408,
    "lng": -84.564144
  },
  {
    "id": 200,
    "name": "DR DALE / ATLANTA PAIN SPECIALISTS -Whelan Chiropractic center",
    "services": "Chiropractic care",
    "address": "602 Abercorn St, Savannah, GA 31401",
    "category": "Chiropractic Care",
    "markedGreen": false,
    "hours": "Monday-Friday 9AM-5PM",
    "language": "English",
    "rating": 3,
    "insurance": "",
    "lat": 32.068344,
    "lng": -81.093231
  },
  {
    "id": 201,
    "name": "Pham Chiropractic",
    "services": "Chiropractic Care",
    "address": "110 Evans Mill Dr. #302\nDallas, GA 30157",
    "category": "Chiropractic Care",
    "markedGreen": false,
    "hours": "Monday-Friday 9AM-5PM",
    "language": "Russian",
    "rating": 1,
    "insurance": "",
    "lat": 33.916105,
    "lng": -84.766734
  },
  {
    "id": 202,
    "name": "Grand Oak Chiropractic - Loganville",
    "services": "Chiropractic Care",
    "address": "3955 Harrison Rd SW STE 100, Loganville, GA 30052",
    "category": "Chiropractic Care",
    "markedGreen": false,
    "hours": "Monday-Friday 9AM-5PM",
    "language": "English",
    "rating": 2,
    "insurance": "",
    "lat": 33.848363,
    "lng": -83.920041
  },
  {
    "id": 203,
    "name": "Grand Oak Chiropractic - Athens",
    "services": "Chiropractic Care",
    "address": "2425 W Broad St Suite 2, Athens, GA 30606",
    "category": "Chiropractic Care",
    "markedGreen": false,
    "hours": "Monday-Friday 9AM-5PM",
    "language": "English",
    "rating": 3,
    "insurance": "",
    "lat": 33.947439,
    "lng": -83.417487
  },
  {
    "id": 204,
    "name": "Active Healthcare Rehab - West End",
    "services": "Chiropractic Care",
    "address": "1062 Ralph David Abernathy Blvd SW, Atlanta, GA 30310",
    "category": "Chiropractic Care",
    "markedGreen": false,
    "hours": "Monday-Friday 9AM-5PM",
    "language": "English",
    "rating": 1,
    "insurance": "",
    "lat": 33.738047,
    "lng": -84.422585
  },
  {
    "id": 205,
    "name": "Atlanta Chiropractic & Rehab",
    "services": "Chiropractic Care",
    "address": "2053 Stanton Rd. \nAtlanta, GA 30344",
    "category": "Chiropractic Care",
    "markedGreen": false,
    "hours": "Monday-Friday 9AM-5PM",
    "language": "English",
    "rating": 2,
    "insurance": "",
    "lat": 33.699131,
    "lng": -84.448951
  },
  {
    "id": 206,
    "name": "Pham Chiropractic Dr. Edward Pham",
    "services": "Chiropractic care",
    "address": "110 Evans Mill Drive, Ste - 302\nDallas, GA 30157",
    "category": "Chiropractic Care",
    "markedGreen": false,
    "hours": "Monday-Friday 9AM-5PM",
    "language": "English",
    "rating": 3,
    "insurance": "",
    "lat": 33.916105,
    "lng": -84.766734
  },
  {
    "id": 207,
    "name": "Georgia Neck & Back- Lawrenceville",
    "services": "Chiropractic Care",
    "address": "960-B Herrington Rd\nLawrenceville, GA 30044",
    "category": "Chiropractic Care",
    "markedGreen": false,
    "hours": "Monday-Sunday 9AM-5PM",
    "language": "English",
    "rating": 3,
    "insurance": "",
    "lat": 33.941688,
    "lng": -84.081748
  },
  {
    "id": 208,
    "name": "Discover Integrated Health",
    "services": "Chropractic care",
    "address": "3940 Cherokee St NW #402,\nKennesaw, GA 30144",
    "category": "Chiropractic Care",
    "markedGreen": false,
    "hours": "Monday-Friday 9AM-5PM",
    "language": "Russian",
    "rating": 1,
    "insurance": "",
    "lat": 34.048859,
    "lng": -84.59735
  },
  {
    "id": 209,
    "name": "Care Medical & Chiropractic Center-Tifton-\u00a0multi-discipline provider",
    "services": "Chiropractic care, Physical Therapy and Pain Management",
    "address": "162 S Virginia Ave, Tifton, GA 31794",
    "category": "Chiropractic Care",
    "markedGreen": false,
    "hours": "Monday-Friday 9AM-5PM",
    "language": "English",
    "rating": 2,
    "insurance": "",
    "lat": 31.453845,
    "lng": -83.527691
  },
  {
    "id": 210,
    "name": "Care Medical & Chiropractic Center-Douglas-\u00a0multi-discipline provider",
    "services": "Chiropractic care, Physical Therapy and Pain Management",
    "address": "100 Doctors Building, Suite A\nDouglas, GA 31533",
    "category": "Chiropractic Care",
    "markedGreen": false,
    "hours": "Monday-Friday 9AM-5PM",
    "language": "English",
    "rating": 3,
    "insurance": "",
    "lat": 31.513056,
    "lng": -82.866708
  },
  {
    "id": 211,
    "name": "Care Medical & Chiropractic Center-Valdosta-\u00a0multi-discipline provider",
    "services": "Chiropractic care, Physical Therapy and Pain Management",
    "address": "2804 N Oak St Valdosta, GA 31602",
    "category": "Chiropractic Care",
    "markedGreen": false,
    "hours": "Monday-Friday 9AM-5PM",
    "language": "English",
    "rating": 1,
    "insurance": "",
    "lat": 30.869808,
    "lng": -83.292597
  },
  {
    "id": 212,
    "name": "Advanced Chiropractic",
    "services": "Chiropractic Care",
    "address": "1261 Parker Rd SE, Conyers, GA 30094",
    "category": "Chiropractic Care",
    "markedGreen": false,
    "hours": "Monday-Friday 9AM-5PM",
    "language": "English",
    "rating": 2,
    "insurance": "",
    "lat": 33.656404,
    "lng": -84.02083
  },
  {
    "id": 213,
    "name": "Spinalys Chiropractic Center LLC",
    "services": "Chiropractic Care",
    "address": "130 Allen Rd NE, Sandy Springs, GA 30328",
    "category": "Chiropractic Care",
    "markedGreen": false,
    "hours": "Monday-Friday 9AM-5PM",
    "language": "English",
    "rating": 3,
    "insurance": "",
    "lat": 33.913694,
    "lng": -84.382604
  },
  {
    "id": 214,
    "name": "SPINALYS CHIROPRACTIC CENTER LLC",
    "services": "Chiropractic Care",
    "address": "1869 Cobb Pkwy SE Suite 700, Marietta, GA 30060",
    "category": "Chiropractic Care",
    "markedGreen": false,
    "hours": "Monday-Sunday 9AM-5PM",
    "language": "English",
    "rating": 3,
    "insurance": "",
    "lat": 33.930076,
    "lng": -84.509201
  },
  {
    "id": 215,
    "name": "East West Spine & Rehab",
    "services": "Chiropractor Care",
    "address": "1385 Highlands Ridge Rd SE suite c, \nSmyrna, GA 30082",
    "category": "Chiropractic Care",
    "markedGreen": false,
    "hours": "Monday-Friday 9AM-5PM",
    "language": "Russian",
    "rating": 1,
    "insurance": "",
    "lat": 33.840605,
    "lng": -84.519591
  },
  {
    "id": 216,
    "name": "Better Spine Sports & Rehab",
    "services": "Chiropractic Care",
    "address": "6630 McGinnis Ferry Road St. B \nJohns Creek, GA 30097",
    "category": "Chiropractic Care",
    "markedGreen": false,
    "hours": "Monday-Friday 9AM-5PM",
    "language": "English",
    "rating": 2,
    "insurance": "",
    "lat": 34.066772,
    "lng": -84.166383
  },
  {
    "id": 217,
    "name": "Relief & Rehab Center of Atlanta - Michael R. Thomas, DC",
    "services": "Chiropractic care",
    "address": "3433 B MAIN STREET\nCOLLEGE PARK, GA 30337",
    "category": "Chiropractic Care",
    "markedGreen": true,
    "hours": "Monday-Friday 9AM-5PM",
    "language": "English",
    "rating": 3,
    "insurance": "",
    "lat": 33.661884,
    "lng": -84.447177
  },
  {
    "id": 218,
    "name": "Injury 2 Wellness-\u00a0Norcross",
    "services": "Chiropractic care",
    "address": "3680 Holcomb Bridge Rd #100, \nNorcross, GA 30092",
    "category": "Chiropractic Care",
    "markedGreen": false,
    "hours": "Monday-Friday 9AM-5PM",
    "language": "English",
    "rating": 1,
    "insurance": "",
    "lat": 33.96002,
    "lng": -84.247096
  },
  {
    "id": 219,
    "name": "Injury 2 Wellness- Woodstock",
    "services": "Chiropractic care",
    "address": "12035 Hwy 92 #400, \nWoodstock, GA 30188",
    "category": "Chiropractic Care",
    "markedGreen": false,
    "hours": "Monday-Friday 9AM-5PM",
    "language": "English",
    "rating": 2,
    "insurance": "",
    "lat": 34.08867,
    "lng": -84.485727
  },
  {
    "id": 220,
    "name": "Happy Spine Chiropractic",
    "services": "Chiropractic Care",
    "address": "4500 Satellite Blvd Suite 2390 Duluth, GA 30096",
    "category": "Chiropractic Care",
    "markedGreen": false,
    "hours": "Monday-Friday 9AM-5PM",
    "language": "English",
    "rating": 3,
    "insurance": "",
    "lat": 33.942011,
    "lng": -84.159748
  },
  {
    "id": 221,
    "name": "Joy Chiropractic",
    "services": "Chiropractic Care",
    "address": "5299 Jonesboro Rd Suite 201 Morrow, GA 30260",
    "category": "Chiropractic Care",
    "markedGreen": false,
    "hours": "Monday-Sunday 9AM-5PM",
    "language": "English",
    "rating": 3,
    "insurance": "",
    "lat": 33.61058,
    "lng": -84.347379
  },
  {
    "id": 222,
    "name": "The Chiropractic Center, LLC (BUCKHEAD)",
    "services": "Chiropractic Care",
    "address": "4205 Roswell Road NE Atlanta, GA 30342",
    "category": "Chiropractic Care",
    "markedGreen": false,
    "hours": "Monday-Friday 9AM-5PM",
    "language": "Russian",
    "rating": 1,
    "insurance": "",
    "lat": 33.869449,
    "lng": -84.380578
  },
  {
    "id": 223,
    "name": "The Chiropractic Center, LLC (KENNESAW)",
    "services": "Chiropractic Care",
    "address": "543 Roberts Ct Kennesaw, GA 30144",
    "category": "Chiropractic Care",
    "markedGreen": false,
    "hours": "Monday-Friday 9AM-5PM",
    "language": "English",
    "rating": 2,
    "insurance": "",
    "lat": 34.008363,
    "lng": -84.564299
  },
  {
    "id": 224,
    "name": "The Chiropractic Center, LLC (MIDTOWN)",
    "services": "Chiropractic Care",
    "address": "414 Ponce De Leon Ave NE Atlanta, GA 30308",
    "category": "Chiropractic Care",
    "markedGreen": false,
    "hours": "Monday-Friday 9AM-5PM",
    "language": "English",
    "rating": 3,
    "insurance": "",
    "lat": 33.773154,
    "lng": -84.373765
  },
  {
    "id": 225,
    "name": "The Chiropractic Center LLC (MARIETTA)",
    "services": "Chiropractic Care",
    "address": "1885 Leland Dr SE Marietta, GA 30067",
    "category": "Chiropractic Care",
    "markedGreen": false,
    "hours": "Monday-Friday 9AM-5PM",
    "language": "English",
    "rating": 1,
    "insurance": "",
    "lat": 33.90612,
    "lng": -84.473848
  },
  {
    "id": 226,
    "name": "The Chiropractic Center, LLC (SANDY SPRINGS)",
    "services": "Chiropractic Care",
    "address": "750 Hammond Dr NE # 15 Sandy Springs, GA 30328",
    "category": "Chiropractic Care",
    "markedGreen": false,
    "hours": "Monday-Friday 9AM-5PM",
    "language": "English",
    "rating": 2,
    "insurance": "",
    "lat": 33.920066,
    "lng": -84.362345
  },
  {
    "id": 227,
    "name": "Pickens County Chiropractic Center",
    "services": "Chiropractic Care",
    "address": "115 N Main St #1, Jasper, GA 30143",
    "category": "Chiropractic Care",
    "markedGreen": false,
    "hours": "Monday-Friday 9AM-5PM",
    "language": "English",
    "rating": 3,
    "insurance": "",
    "lat": 34.469342,
    "lng": -84.431066
  },
  {
    "id": 228,
    "name": "Vega Injury and Spine Center",
    "services": "Chiropractic Care",
    "address": "3081 Holcomb Bridge Road\nSuite J1\nNorcross, GA 30071",
    "category": "Chiropractic Care",
    "markedGreen": false,
    "hours": "Monday-Sunday 9AM-5PM",
    "language": "English",
    "rating": 3,
    "insurance": "",
    "lat": 33.947454,
    "lng": -84.229076
  },
  {
    "id": 229,
    "name": "AlignLife - Chiropractic & Natural Health Center",
    "services": "Chiropractic Care",
    "address": "5422 Cumming Hwy NE Ste 101, Sugar Hill, GA 30518",
    "category": "Chiropractic Care",
    "markedGreen": false,
    "hours": "Monday-Friday 9AM-5PM",
    "language": "Russian",
    "rating": 1,
    "insurance": "",
    "lat": 34.11125,
    "lng": -84.056
  },
  {
    "id": 230,
    "name": "Pain Injury Rehab- Dr. Alonzo Borja",
    "services": "Chiropractic care",
    "address": "1950 Buford Mill Dr Suite E, Buford, GA 30519",
    "category": "Chiropractic Care",
    "markedGreen": false,
    "hours": "Monday-Friday 9AM-5PM",
    "language": "English",
    "rating": 2,
    "insurance": "",
    "lat": 34.08823,
    "lng": -83.989059
  },
  {
    "id": 231,
    "name": "Momentum Rehab & Therapy",
    "services": "Chiropractic care",
    "address": "5243 Snapfinger Woods DR.\nSuite 102\nDecatur, GA 30035",
    "category": "Chiropractic Care",
    "markedGreen": false,
    "hours": "Monday-Friday 9AM-5PM",
    "language": "English",
    "rating": 3,
    "insurance": "",
    "lat": 33.708768,
    "lng": -84.175138
  },
  {
    "id": 232,
    "name": "DR DALE / ATLANTA PAIN SPECIALISTS- ALPHARETTA (Roswell Health & Injury Center)",
    "services": "Chiropractic Care",
    "address": "1499 Alpharetta Highway\nSuite 100\nAlpharetta, GA 30009",
    "category": "Chiropractic Care",
    "markedGreen": false,
    "hours": "Monday-Friday 9AM-5PM",
    "language": "English",
    "rating": 1,
    "insurance": "",
    "lat": 34.067193,
    "lng": -84.316568
  },
  {
    "id": 233,
    "name": "DR DALE / ATLANTA PAIN SPECIALISTS-\u00a0ATLANTA - MIDTOWN (Hurt 911)",
    "services": "Chiropractic Care",
    "address": "147 North Avenue\nAtlanta, GA 30308",
    "category": "Chiropractic Care",
    "markedGreen": false,
    "hours": "Monday-Friday 9AM-5PM",
    "language": "English",
    "rating": 2,
    "insurance": "",
    "lat": 33.771222,
    "lng": -84.382536
  },
  {
    "id": 234,
    "name": "DR DALE / ATLANTA PAIN SPECIALISTS-ATLANTA - WEST END (Hurt 911)",
    "services": "Chiropractic Care",
    "address": "1465 Westwood Avenue\nAtlanta, GA 30310",
    "category": "Chiropractic Care",
    "markedGreen": false,
    "hours": "Monday-Friday 9AM-5PM",
    "language": "English",
    "rating": 3,
    "insurance": "",
    "lat": 33.738357,
    "lng": -84.435669
  },
  {
    "id": 235,
    "name": "DR DALE / ATLANTA PAIN SPECIALISTS-\u00a0CARROLLTON (Dr. Pete's Chiropractic)",
    "services": "Chiropractic Care",
    "address": "501A Bankhead Highway\nCarrollton, GA 30117",
    "category": "Chiropractic Care",
    "markedGreen": false,
    "hours": "Monday-Sunday 9AM-5PM",
    "language": "English",
    "rating": 3,
    "insurance": "",
    "lat": 33.584648,
    "lng": -85.059021
  },
  {
    "id": 236,
    "name": "DR DALE / ATLANTA PAIN SPECIALISTS-\u00a0COLUMBUS (Advanced Healthcare & Injury Center)",
    "services": "Chiropractic Care",
    "address": "2205 Rosemont Drive\nColumbus, GA 31904",
    "category": "Chiropractic Care",
    "markedGreen": false,
    "hours": "Monday-Friday 9AM-5PM",
    "language": "Russian",
    "rating": 1,
    "insurance": "",
    "lat": 32.50104,
    "lng": -84.960582
  },
  {
    "id": 237,
    "name": "DR DALE / ATLANTA PAIN SPECIALISTS-\u00a0CONYERS (Z-Chiro Medspa)",
    "services": "Chiropractic Care",
    "address": "2202 Salem Road\nConyers, GA 30013",
    "category": "Chiropractic Care",
    "markedGreen": false,
    "hours": "Monday-Friday 9AM-5PM",
    "language": "English",
    "rating": 2,
    "insurance": "",
    "lat": 33.631665,
    "lng": -83.976932
  },
  {
    "id": 238,
    "name": "DR DALE / ATLANTA PAIN SPECIALISTS-\u00a0DECATUR NORTH (Align Atlanta)",
    "services": "Chiropractic Care",
    "address": "4292 Memorial Drive\nSuite B\nDecatur, GA 30032",
    "category": "Chiropractic Care",
    "markedGreen": false,
    "hours": "Monday-Friday 9AM-5PM",
    "language": "English",
    "rating": 3,
    "insurance": "",
    "lat": 33.774527,
    "lng": -84.249869
  },
  {
    "id": 239,
    "name": "DR DALE / ATLANTA PAIN SPECIALISTS-\u00a0DECATUR SOUTH (Atlanta Health Unlimited)",
    "services": "Chiropractic Care",
    "address": "3424 Flat Shoals Road\nDecatur, GA 30034",
    "category": "Chiropractic Care",
    "markedGreen": false,
    "hours": "Monday-Friday 9AM-5PM",
    "language": "English",
    "rating": 1,
    "insurance": "",
    "lat": 33.705403,
    "lng": -84.275432
  },
  {
    "id": 240,
    "name": "DR DALE / ATLANTA PAIN SPECIALISTS-\u00a0DOUGLASVILLE (Hospital Drive Chiropractic)",
    "services": "Chiropractic Care",
    "address": "8332 Office Park Drive\nDouglasville, GA 30134",
    "category": "Chiropractic Care",
    "markedGreen": false,
    "hours": "Monday-Friday 9AM-5PM",
    "language": "English",
    "rating": 2,
    "insurance": "",
    "lat": 33.753435,
    "lng": -84.731811
  },
  {
    "id": 241,
    "name": "DR DALE / ATLANTA PAIN SPECIALISTS-\u00a0EAST POINT (East Point Chiropractic Center)",
    "services": "Chiropractic Care",
    "address": "1668 Thompson Ave\nEast Point, GA 30344",
    "category": "Chiropractic Care",
    "markedGreen": false,
    "hours": "Monday-Friday 9AM-5PM",
    "language": "English",
    "rating": 3,
    "insurance": "",
    "lat": 33.678147,
    "lng": -84.443438
  },
  {
    "id": 242,
    "name": "DR DALE / ATLANTA PAIN SPECIALISTS-\u00a0JACKSON (Southmetro Chiropractic Center)",
    "services": "Chiropractic Care",
    "address": "791 Highway 36 East\nJackson, GA 30233",
    "category": "Chiropractic Care",
    "markedGreen": false,
    "hours": "Monday-Sunday 9AM-5PM",
    "language": "English",
    "rating": 3,
    "insurance": "",
    "lat": 33.304438,
    "lng": -83.960551
  },
  {
    "id": 243,
    "name": "DR DALE / ATLANTA PAIN SPECIALISTS-\u00a0JONESBORO (Southmetro Chiropractic Center)",
    "services": "Chiropractic Care",
    "address": "7202 Tara Blvd\nJonesboro, GA 30236",
    "category": "Chiropractic Care",
    "markedGreen": false,
    "hours": "Monday-Friday 9AM-5PM",
    "language": "Russian",
    "rating": 1,
    "insurance": "",
    "lat": 33.557849,
    "lng": -84.370328
  },
  {
    "id": 244,
    "name": "DR DALE / ATLANTA PAIN SPECIALISTS-\u00a0LITHONIA (Ortho Injury & Wellness)",
    "services": "Chiropractic Care",
    "address": "6148 Covington Highway\nSuite A\nLithonia, GA 30058",
    "category": "Chiropractic Care",
    "markedGreen": false,
    "hours": "Monday-Friday 9AM-5PM",
    "language": "English",
    "rating": 2,
    "insurance": "",
    "lat": 33.723617,
    "lng": -84.164363
  },
  {
    "id": 245,
    "name": "DR DALE / ATLANTA PAIN SPECIALISTS-\u00a0MARIETTA",
    "services": "Chiropractic Care",
    "address": "2900 Delk Road \nSuite 550\nMarietta, GA 30067",
    "category": "Chiropractic Care",
    "markedGreen": false,
    "hours": "Monday-Friday 9AM-5PM",
    "language": "English",
    "rating": 3,
    "insurance": "",
    "lat": 33.922981,
    "lng": -84.466686
  },
  {
    "id": 246,
    "name": "The Hurt 911 Injury Group",
    "services": "Chiropractic Care",
    "address": "1515 Pennsylvania Ave, McDonough, GA 30253",
    "category": "Chiropractic Care",
    "markedGreen": true,
    "hours": "Monday-Friday 9AM-5PM",
    "language": "English",
    "rating": 1,
    "insurance": "",
    "lat": 33.435335,
    "lng": -84.173587
  },
  {
    "id": 247,
    "name": "DR DALE / ATLANTA PAIN SPECIALISTS-\u00a0MORROW (Hurt 911)",
    "services": "Chiropractic Care",
    "address": "7147 Jonesboro Road\nSuite J\nMorrow, GA 30260",
    "category": "Chiropractic Care",
    "markedGreen": false,
    "hours": "Monday-Friday 9AM-5PM",
    "language": "English",
    "rating": 2,
    "insurance": "",
    "lat": 33.560626,
    "lng": -84.346152
  },
  {
    "id": 248,
    "name": "DR DALE / ATLANTA PAIN SPECIALISTS-\u00a0RIVERDALE (Southern Crescent Injury & Rehab)",
    "services": "Chiropractic Care",
    "address": "34 Upper Riverdale Road\nSuite 206\nRiverdale, GA 30274",
    "category": "Chiropractic Care",
    "markedGreen": false,
    "hours": "Monday-Friday 9AM-5PM",
    "language": "English",
    "rating": 3,
    "insurance": "",
    "lat": 33.577868,
    "lng": -84.38766
  },
  {
    "id": 249,
    "name": "DR DALE / ATLANTA PAIN SPECIALISTS-\u00a0ROME (Tucker Chiropractic)",
    "services": "Chiropractic Care",
    "address": "610 Shorter Ave\nSuite 23\nRome, GA 30165",
    "category": "Chiropractic Care",
    "markedGreen": false,
    "hours": "Monday-Sunday 9AM-5PM",
    "language": "English",
    "rating": 3,
    "insurance": "",
    "lat": 34.267097,
    "lng": -85.199756
  },
  {
    "id": 250,
    "name": "Georgia Neck & Back-Snellville",
    "services": "Chiropractic Care",
    "address": "4002 Stone Mountain Hwy\nSuite 320\nSnellville, GA 30039",
    "category": "Chiropractic Care",
    "markedGreen": false,
    "hours": "Monday-Friday 9AM-5PM",
    "language": "Russian",
    "rating": 1,
    "insurance": "",
    "lat": 33.836388,
    "lng": -84.068121
  },
  {
    "id": 251,
    "name": "Grid Chiropractic",
    "services": "Chiropractic Care",
    "address": "3654 Eisenhower Pkwy #4, Macon, GA 31206",
    "category": "Chiropractic Care",
    "markedGreen": false,
    "hours": "Monday-Friday 9AM-5PM",
    "language": "English",
    "rating": 2,
    "insurance": "",
    "lat": 32.814538,
    "lng": -83.69231
  },
  {
    "id": 252,
    "name": "McDowell Chiropractic\nDr. Ben McDowell",
    "services": "Chiropractic Care",
    "address": "1570 Holcomb Bridge Rd #550, \nRoswell, GA 30076",
    "category": "Chiropractic Care",
    "markedGreen": false,
    "hours": "Monday-Friday 9AM-5PM",
    "language": "English",
    "rating": 3,
    "insurance": "",
    "lat": 34.019981,
    "lng": -84.314306
  },
  {
    "id": 253,
    "name": "Savannah Chiropractic Center\nDr. Mike Vaughn",
    "services": "Chiropractic Care",
    "address": "410 Mall Blvd, \nSavannah, GA 31406",
    "category": "Chiropractic Care",
    "markedGreen": false,
    "hours": "Monday-Friday 9AM-5PM",
    "language": "English",
    "rating": 1,
    "insurance": "",
    "lat": 32.001851,
    "lng": -81.110057
  },
  {
    "id": 254,
    "name": "Dr. Nicholas Carlisle, DC\nAtlanta Medical Institute (Sandy Springs)",
    "services": "Chiropractic care",
    "address": "5009 Roswell Rd Suite 120\nAtlanta, Ga 30342",
    "category": "Chiropractic Care",
    "markedGreen": false,
    "hours": "Monday-Friday 9AM-5PM",
    "language": "English",
    "rating": 2,
    "insurance": "",
    "lat": 33.891664,
    "lng": -84.380801
  },
  {
    "id": 255,
    "name": "Clinica Pastor-\u00a0Chamblee",
    "services": "Chiropractic care",
    "address": "4775 Buford Hwy NE # 102, Chamblee, GA 30341",
    "category": "Chiropractic Care",
    "markedGreen": true,
    "hours": "Monday-Friday 9AM-5PM",
    "language": "English",
    "rating": 3,
    "insurance": "",
    "lat": 33.880741,
    "lng": -84.290507
  },
  {
    "id": 256,
    "name": "Clinica Pastor-Mableton",
    "services": "Chiropractic care",
    "address": "1245 Veterans Memorial Hwy SW Suite 22, Mableton, GA 30126",
    "category": "Chiropractic Care",
    "markedGreen": true,
    "hours": "Monday-Sunday 9AM-5PM",
    "language": "English",
    "rating": 3,
    "insurance": "",
    "lat": 33.815398,
    "lng": -84.590421
  },
  {
    "id": 257,
    "name": "Clinica Pastor-Jonesboro",
    "services": "Chiropractic care",
    "address": "6620 Tara Blvd, Jonesboro, GA 30236",
    "category": "Chiropractic Care",
    "markedGreen": true,
    "hours": "Monday-Friday 9AM-5PM",
    "language": "Russian",
    "rating": 1,
    "insurance": "",
    "lat": 33.573668,
    "lng": -84.370142
  },
  {
    "id": 258,
    "name": "Clinica Pastor-Sugarhill / Buford",
    "services": "Chiropractic care",
    "address": "1330 Peachtree Industrial Blvd Suite B5, Sugar Hill, GA 30518",
    "category": "Chiropractic Care",
    "markedGreen": true,
    "hours": "Monday-Friday 9AM-5PM",
    "language": "English",
    "rating": 2,
    "insurance": "",
    "lat": 34.106694,
    "lng": -84.029188
  },
  {
    "id": 259,
    "name": "Clinica Pastor-Conyers",
    "services": "Chiropractic care",
    "address": "1379 Iris Dr SE, Conyers, GA 30013",
    "category": "Chiropractic Care",
    "markedGreen": true,
    "hours": "Monday-Friday 9AM-5PM",
    "language": "English",
    "rating": 3,
    "insurance": "",
    "lat": 33.650784,
    "lng": -84.002079
  },
  {
    "id": 260,
    "name": "Clinica Pastor-Acworth",
    "services": "Chiropractic care",
    "address": "5598 Bells Ferry Rd, Acworth, GA 30102",
    "category": "Chiropractic Care",
    "markedGreen": true,
    "hours": "Monday-Friday 9AM-5PM",
    "language": "English",
    "rating": 1,
    "insurance": "",
    "lat": 34.086867,
    "lng": -84.575462
  },
  {
    "id": 261,
    "name": "DT Chiropractic - Rome",
    "services": "Chiropractic care",
    "address": "4 Professional Pkwy Rome, GA 30165",
    "category": "Chiropractic Care",
    "markedGreen": true,
    "hours": "Monday-Friday 9AM-5PM",
    "language": "English",
    "rating": 2,
    "insurance": "",
    "lat": 34.259803,
    "lng": -85.172778
  },
  {
    "id": 262,
    "name": "DT Chiropractic - Cartersville",
    "services": "Chiropractic care",
    "address": "205 Stonewall Street Cartersville, GA 30120",
    "category": "Chiropractic Care",
    "markedGreen": true,
    "hours": "Monday-Friday 9AM-5PM",
    "language": "English",
    "rating": 3,
    "insurance": "",
    "lat": 34.164732,
    "lng": -84.791944
  },
  {
    "id": 263,
    "name": "DT Chiropractic - Canton",
    "services": "Chiropractic care",
    "address": "2920 Marietta Highway Suite 102 Canton, GA 30114",
    "category": "Chiropractic Care",
    "markedGreen": true,
    "hours": "Monday-Sunday 9AM-5PM",
    "language": "English",
    "rating": 3,
    "insurance": "",
    "lat": 34.207715,
    "lng": -84.506354
  },
  {
    "id": 264,
    "name": "Medina Wellness and Chiropractic Center",
    "services": "Chiropractic care",
    "address": "5825 Glenridge Drive Building 3 Suite 130 Atlanta, GA 30328",
    "category": "Chiropractic Care",
    "markedGreen": false,
    "hours": "Monday-Friday 9AM-5PM",
    "language": "Russian",
    "rating": 1,
    "insurance": "",
    "lat": 33.91466,
    "lng": -84.360329
  },
  {
    "id": 265,
    "name": "Vida Chiropractic Centers",
    "services": "Chiropractic care",
    "address": "10709 Alpharetta Highway Roswell, GA 30076",
    "category": "Chiropractic Care",
    "markedGreen": false,
    "hours": "Monday-Friday 9AM-5PM",
    "language": "English",
    "rating": 2,
    "insurance": "",
    "lat": 34.039734,
    "lng": -84.340535
  },
  {
    "id": 266,
    "name": "Marietta Physical Rehab",
    "services": "Chiropractic care",
    "address": "2359 Windy Hill Rd SE #320, Marietta, GA",
    "category": "Chiropractic Care",
    "markedGreen": false,
    "hours": "Monday-Friday 9AM-5PM",
    "language": "English",
    "rating": 3,
    "insurance": "",
    "lat": 33.904911,
    "lng": -84.485661
  },
  {
    "id": 267,
    "name": "Atlanta Total Wellness",
    "services": "Chropractic care",
    "address": "855 Mount Vernon Hwy NE Ste 100\nAtlanta, GA 30328-4281",
    "category": "Chiropractic Care",
    "markedGreen": false,
    "hours": "Monday-Friday 9AM-5PM",
    "language": "English",
    "rating": 1,
    "insurance": "",
    "lat": 33.928975,
    "lng": -84.359295
  },
  {
    "id": 268,
    "name": "Easewell Chiropractic- Westside",
    "services": "Chiropractic Care",
    "address": "2320 Marietta Blvd NW, Unit B\n\nAtlanta, GA 30318",
    "category": "Chiropractic Care",
    "markedGreen": true,
    "hours": "Monday-Friday 9AM-5PM",
    "language": "English",
    "rating": 2,
    "insurance": "",
    "lat": 33.820162,
    "lng": -84.453653
  },
  {
    "id": 269,
    "name": "HealthStar Atlanta",
    "services": "Chiropractic Care",
    "address": "1404 Southlake Plaza Dr, Morrow, GA 30260",
    "category": "Chiropractic Care",
    "markedGreen": true,
    "hours": "Monday-Friday 9AM-5PM",
    "language": "English",
    "rating": 3,
    "insurance": "",
    "lat": 33.578512,
    "lng": -84.344331
  },
  {
    "id": 270,
    "name": "Premier Health Chiropractic-\u00a0Union City",
    "services": "Chiropractic care",
    "address": "4550 Jonesboro Road \nUnion City, GA 30291",
    "category": "Chiropractic Care",
    "markedGreen": true,
    "hours": "Monday-Sunday 9AM-5PM",
    "language": "English",
    "rating": 3,
    "insurance": "",
    "lat": 33.566077,
    "lng": -84.537013
  },
  {
    "id": 271,
    "name": "Premier Health Chiropractic-Warner Robins Spine & Injury",
    "services": "Chiropractic Care",
    "address": "504 Osigian Blvd \nWarner Robins, GA 31088",
    "category": "Chiropractic Care",
    "markedGreen": true,
    "hours": "Monday-Friday 9AM-5PM",
    "language": "Russian",
    "rating": 1,
    "insurance": "",
    "lat": 32.613168,
    "lng": -83.698477
  },
  {
    "id": 272,
    "name": "Southern Crescent Medical Clinic-\u00a0Fayetteville",
    "services": "Chiropractic Care",
    "address": "874 Lanier Ave West #210\nFayetteville, GA 30214",
    "category": "Chiropractic Care",
    "markedGreen": true,
    "hours": "Monday-Friday 9AM-5PM",
    "language": "English",
    "rating": 2,
    "insurance": "",
    "lat": 33.446842,
    "lng": -84.477003
  },
  {
    "id": 273,
    "name": "Southern Crescent Medical Clinic -\u00a0Griffin",
    "services": "Chiropractic Care",
    "address": "1005 W Taylor St\nGriffin, GA 30223",
    "category": "Chiropractic Care",
    "markedGreen": true,
    "hours": "Monday-Friday 9AM-5PM",
    "language": "English",
    "rating": 3,
    "insurance": "",
    "lat": 33.247589,
    "lng": -84.278675
  },
  {
    "id": 274,
    "name": "Southern Crescent Medical Clinic-\u00a0Jonesboro",
    "services": "Chiropractic Care",
    "address": "696 Mt Zion Rd #C4\nJonesboro, GA 30236",
    "category": "Chiropractic Care",
    "markedGreen": true,
    "hours": "Monday-Friday 9AM-5PM",
    "language": "English",
    "rating": 1,
    "insurance": "",
    "lat": 33.573625,
    "lng": -84.36778
  },
  {
    "id": 275,
    "name": "Southern Crescent Medical Clinic-Newnan",
    "services": "Chiropractic Care",
    "address": "1635 GA-34 #D\nNewnan, GA 30265",
    "category": "Chiropractic Care",
    "markedGreen": true,
    "hours": "Monday-Friday 9AM-5PM",
    "language": "English",
    "rating": 2,
    "insurance": "",
    "lat": 33.398594,
    "lng": -84.726228
  },
  {
    "id": 276,
    "name": "Precision Injury Care- Lawrenceville",
    "services": "multi-discipline provider:\n\u2022\tChiropractic\n\u2022\tPhysical Therapy, and \n\u2022\tPain Management",
    "address": "555 Old Norcross Rd Suite 210\nLawrenceville, GA 30046",
    "category": "Chiropractic Care",
    "markedGreen": true,
    "hours": "Monday-Friday 9AM-5PM",
    "language": "English",
    "rating": 3,
    "insurance": "",
    "lat": 33.959583,
    "lng": -84.006849
  },
  {
    "id": 277,
    "name": "Precision Injury Care \u2013 CAMP CREEK/ATLANTA",
    "services": "multi-discipline provider:\n\u2022\tChiropractic\n\u2022\tPhysical Therapy, and \n\u2022\tPain Management",
    "address": "2300 Camp Creek Pkwy\nSuite 200\nAtlanta, GA 30337",
    "category": "Chiropractic Care",
    "markedGreen": true,
    "hours": "Monday-Sunday 9AM-5PM",
    "language": "English",
    "rating": 3,
    "insurance": "",
    "lat": 33.648663,
    "lng": -84.465691
  },
  {
    "id": 278,
    "name": "Trident Medical Centers (Athens/Bogart/Watkinsville)",
    "services": "multi-discipline provider:\n\u2022\tChiropractic\n\u2022\tPhysical Therapy, and \n\u2022\tPain Management",
    "address": "2092 Prince Ave\nBuilding B\nAthens, GA 30606",
    "category": "Chiropractic Care",
    "markedGreen": true,
    "hours": "Monday-Friday 9AM-5PM",
    "language": "Russian",
    "rating": 1,
    "insurance": "",
    "lat": 33.970094,
    "lng": -83.409354
  },
  {
    "id": 279,
    "name": "Titan Injury Centers-Hinesville",
    "services": "multi-discipline provider:\n\u2022\tChiropractic\n\u2022\tPhysical Therapy, and \n\u2022\tPain Management",
    "address": "1146 Elma G. Miles Parkway\nSuite 103\nHinesville, GA 31313",
    "category": "Chiropractic Care",
    "markedGreen": true,
    "hours": "Monday-Friday 9AM-5PM",
    "language": "English",
    "rating": 2,
    "insurance": "",
    "lat": 31.822995,
    "lng": -81.630258
  },
  {
    "id": 280,
    "name": "Titan Injury Centers-Garden City",
    "services": "multi-discipline provider:\n\u2022\tChiropractic\n\u2022\tPhysical Therapy, and \n\u2022\tPain Management",
    "address": "109 Minus Ave\nUnit C-2\nGarden City, GA\n31408",
    "category": "Chiropractic Care",
    "markedGreen": true,
    "hours": "Monday-Friday 9AM-5PM",
    "language": "English",
    "rating": 3,
    "insurance": "",
    "lat": 32.103894,
    "lng": -81.146659
  },
  {
    "id": 281,
    "name": "Titan Injury Centers-Savannah",
    "services": "multi-discipline provider:\n\u2022\tChiropractic\n\u2022\tPhysical Therapy, and \n\u2022\tPain Management",
    "address": "7205 Hodgson Memorial Dr.\nSavannah, GA\n31406",
    "category": "Chiropractic Care",
    "markedGreen": true,
    "hours": "Monday-Friday 9AM-5PM",
    "language": "English",
    "rating": 1,
    "insurance": "",
    "lat": 32.003643,
    "lng": -81.111831
  },
  {
    "id": 282,
    "name": "Titan Injury Centers-Brunswick",
    "services": "multi-discipline provider:\n\u2022\tChiropractic\n\u2022\tPhysical Therapy, and \n\u2022\tPain Management",
    "address": "3365 Cypress Mill Rd\nBrunswick, GA\n31520",
    "category": "Chiropractic Care",
    "markedGreen": true,
    "hours": "Monday-Friday 9AM-5PM",
    "language": "English",
    "rating": 2,
    "insurance": "",
    "lat": 31.19478,
    "lng": -81.479746
  },
  {
    "id": 283,
    "name": "Walker Chiropractic",
    "services": "Chiropractic Care",
    "address": "104 Woodland Rd., \nAugusta, GA 30907, USA",
    "category": "Chiropractic Care",
    "markedGreen": true,
    "hours": "Monday-Friday 9AM-5PM",
    "language": "English",
    "rating": 3,
    "insurance": "",
    "lat": 33.512968,
    "lng": -82.054438
  },
  {
    "id": 284,
    "name": "Bridgemill Family Healthcare",
    "services": "Chiropractic care",
    "address": "3755 Sixes Rd #100,Canton, GA 30114",
    "category": "Chiropractic Care",
    "markedGreen": false,
    "hours": "Monday-Sunday 9AM-5PM",
    "language": "English",
    "rating": 3,
    "insurance": "",
    "lat": 34.176822,
    "lng": -84.549779
  },
  {
    "id": 285,
    "name": "Kratz Chiropractic",
    "services": "Chiropractic Care",
    "address": "975 Peachtree Pkwy, Suite B \nCumming, GA 30041",
    "category": "Chiropractic Care",
    "markedGreen": false,
    "hours": "Monday-Friday 9AM-5PM",
    "language": "Russian",
    "rating": 1,
    "insurance": "",
    "lat": 34.13752,
    "lng": -84.172591
  },
  {
    "id": 286,
    "name": "Injury 2 Wellness-\u00a0Gainesville",
    "services": "Chiropractic care",
    "address": "250 Dawsonville Hwy suite b, \nGainesville, GA 30501",
    "category": "Chiropractic Care",
    "markedGreen": false,
    "hours": "Monday-Friday 9AM-5PM",
    "language": "English",
    "rating": 2,
    "insurance": "",
    "lat": 34.297233,
    "lng": -83.84497
  },
  {
    "id": 287,
    "name": "Pain & Accident Chiropractic-\u00a0Winder",
    "services": "Chiropractic care",
    "address": "64 E May St Suite F Winder, GA 30680",
    "category": "Chiropractic Care",
    "markedGreen": false,
    "hours": "Monday-Friday 9AM-5PM",
    "language": "English",
    "rating": 3,
    "insurance": "",
    "lat": 33.989162,
    "lng": -83.719199
  },
  {
    "id": 288,
    "name": "Care Medical & Chiropractic Center-Nashville-\u00a0multi-discipline provider",
    "services": "Chiropractic care, Physical Therapy and Pain Management",
    "address": "203 W Hamilton Nashville, GA 31639",
    "category": "Chiropractic Care",
    "markedGreen": false,
    "hours": "Monday-Friday 9AM-5PM",
    "language": "English",
    "rating": 1,
    "insurance": "",
    "lat": 31.208148,
    "lng": -83.251161
  },
  {
    "id": 289,
    "name": "Care Medical & Chiropractic Center-Douglas- multi-discipline provider",
    "services": "Chiropractic care, Physical Therapy and Pain Management",
    "address": "306 Shirley Ave\u00a0Douglas, GA 31533",
    "category": "Chiropractic Care",
    "markedGreen": false,
    "hours": "Monday-Friday 9AM-5PM",
    "language": "English",
    "rating": 2,
    "insurance": "",
    "lat": 31.506114,
    "lng": -82.861085
  },
  {
    "id": 290,
    "name": "Care Medical & Chiropractic Center-Jesup- -\u00a0multi-discipline provider",
    "services": "Chiropractic care, Physical Therapy and Pain Management",
    "address": "936 S 1st St\nJesup, GA 31545",
    "category": "Chiropractic Care",
    "markedGreen": false,
    "hours": "Monday-Friday 9AM-5PM",
    "language": "English",
    "rating": 3,
    "insurance": "",
    "lat": 31.604704,
    "lng": -81.901732
  },
  {
    "id": 291,
    "name": "Care Medical & Chiropractic Center-Waycross - multi-discipline provider",
    "services": "Chiropractic care, Physical Therapy and Pain Management",
    "address": "1411 Alice St\nWaycross, GA 31501",
    "category": "Chiropractic Care",
    "markedGreen": false,
    "hours": "Monday-Sunday 9AM-5PM",
    "language": "English",
    "rating": 3,
    "insurance": "",
    "lat": 31.221129,
    "lng": -82.351301
  },
  {
    "id": 292,
    "name": "Atlas Chiropractic & Wellness Center",
    "services": "Chiropractic care",
    "address": "2800 Peachtree Industrial Blvd STE F, Duluth, GA 30097",
    "category": "Chiropractic Care",
    "markedGreen": false,
    "hours": "Monday-Friday 9AM-5PM",
    "language": "Russian",
    "rating": 1,
    "insurance": "",
    "lat": 34.022319,
    "lng": -84.145511
  },
  {
    "id": 293,
    "name": "Dublin Chiropractic (Dublin, GA)",
    "services": "Chiropractic Care",
    "address": "1022 Hillcrest Pkwy Suite 204, Dublin, GA 31021",
    "category": "Chiropractic Care",
    "markedGreen": false,
    "hours": "Monday-Friday 9AM-5PM",
    "language": "English",
    "rating": 2,
    "insurance": "",
    "lat": 32.545828,
    "lng": -82.934854
  },
  {
    "id": 294,
    "name": "Grand Oak - Conyers",
    "services": "Chiropractic care",
    "address": "997 Commerce Dr SW #1A, Conyers GA 30094",
    "category": "Chiropractic Care",
    "markedGreen": false,
    "hours": "Monday-Friday 9AM-5PM",
    "language": "English",
    "rating": 3,
    "insurance": "",
    "lat": 33.65698,
    "lng": -84.025577
  },
  {
    "id": 295,
    "name": "Holistic Healthcare In Albany, LLC",
    "services": "Chiropractic Care",
    "address": "1144 Dawson Rd, Albany, GA 31707",
    "category": "Chiropractic Care",
    "markedGreen": false,
    "hours": "Monday-Friday 9AM-5PM",
    "language": "English",
    "rating": 1,
    "insurance": "",
    "lat": 31.583747,
    "lng": -84.180266
  },
  {
    "id": 296,
    "name": "Georgia Neck and Back- Tucker",
    "services": "Chiropractic Care",
    "address": "4316 Lawrenceville Hwy Suite 100\nTucker, GA 30084",
    "category": "Chiropractic Care",
    "markedGreen": false,
    "hours": "Monday-Friday 9AM-5PM",
    "language": "English",
    "rating": 2,
    "insurance": "",
    "lat": 33.855572,
    "lng": -84.210047
  },
  {
    "id": 297,
    "name": "Easewell Chiropractic Care Atlanta",
    "services": "Chiropractic Care",
    "address": "210 Bill Kennedy Way SE, Ste 903\nAtlanta, GA 30316",
    "category": "Chiropractic Care",
    "markedGreen": false,
    "hours": "Monday-Friday 9AM-5PM",
    "language": "English",
    "rating": 3,
    "insurance": "",
    "lat": 33.745069,
    "lng": -84.357005
  },
  {
    "id": 298,
    "name": "Ease Wellness Chriropractic- Duluth",
    "services": "Chiropractic Care",
    "address": "3194 Buford Hwy NE Suite 100,\nDuluth, GA 30096",
    "category": "Chiropractic Care",
    "markedGreen": false,
    "hours": "Monday-Sunday 9AM-5PM",
    "language": "English",
    "rating": 3,
    "insurance": "",
    "lat": 33.999332,
    "lng": -84.145686
  },
  {
    "id": 299,
    "name": "Ease Wellness-Chiropractic care",
    "services": "Chiropractic care",
    "address": "686 S 8th St\nGriffin, GA 30224",
    "category": "Chiropractic Care",
    "markedGreen": false,
    "hours": "Monday-Friday 9AM-5PM",
    "language": "Russian",
    "rating": 1,
    "insurance": "",
    "lat": 33.236533,
    "lng": -84.265442
  },
  {
    "id": 300,
    "name": "Ease Wellness-Chiropractic Care-Sandy Springs",
    "services": "Chiropractic Care",
    "address": "5445 Peachtree Dunwoody Rd\nAtlanta, GA 30342",
    "category": "Chiropractic Care",
    "markedGreen": false,
    "hours": "Monday-Friday 9AM-5PM",
    "language": "English",
    "rating": 2,
    "insurance": "",
    "lat": 33.903355,
    "lng": -84.35247
  },
  {
    "id": 301,
    "name": "Horizon Health Care Group-\u00a0Sandy Springs",
    "services": "Chiropractic care",
    "address": "6065 Roswell Rd.\nSuite 220\nSandy Springs, GA 30328",
    "category": "Chiropractic Care",
    "markedGreen": false,
    "hours": "Monday-Friday 9AM-5PM",
    "language": "English",
    "rating": 3,
    "insurance": "",
    "lat": 33.920139,
    "lng": -84.37827
  },
  {
    "id": 302,
    "name": "Horizon Health Care Group-Southlake Health Care-Morrow",
    "services": "Chiropractic Care",
    "address": "1096 Mt, Zion Rd.\nSuite 1130\nMorrow, GA 30260",
    "category": "Chiropractic Care",
    "markedGreen": false,
    "hours": "Monday-Friday 9AM-5PM",
    "language": "English",
    "rating": 1,
    "insurance": "",
    "lat": 33.57262,
    "lng": -84.354238
  },
  {
    "id": 303,
    "name": "Horizon Health Care Group-Conyers Chiropractic & Massage",
    "services": "Chiropractic Care",
    "address": "2239 GA Hwy 20 SE\nSuite D\nConyers, GA 30013",
    "category": "Chiropractic Care",
    "markedGreen": false,
    "hours": "Monday-Friday 9AM-5PM",
    "language": "English",
    "rating": 2,
    "insurance": "",
    "lat": 33.631558,
    "lng": -84.015078
  },
  {
    "id": 304,
    "name": "McDonough Spine & Injury",
    "services": "Chiropractor in McDonough, Georgia",
    "address": "860 Hampton Rd\nMcDonough GA 30253",
    "category": "Chiropractic Care",
    "markedGreen": false,
    "hours": "Monday-Friday 9AM-5PM",
    "language": "English",
    "rating": 3,
    "insurance": "",
    "lat": 33.43416,
    "lng": -84.173402
  },
  {
    "id": 305,
    "name": "Watts Chiropractic Clinic",
    "services": "Chiropractic care",
    "address": "309 Pirkle Ferry Rd STE E100, Cumming, GA 30040",
    "category": "Chiropractic Care",
    "markedGreen": false,
    "hours": "Monday-Sunday 9AM-5PM",
    "language": "English",
    "rating": 3,
    "insurance": "",
    "lat": 34.206213,
    "lng": -84.132892
  },
  {
    "id": 306,
    "name": "Canton Chiropractic & Massage",
    "services": "Chiropractic Treatment",
    "address": "400 Argonne Terrace Canton, GA 30115",
    "category": "Chiropractic Care",
    "markedGreen": false,
    "hours": "Monday-Friday 9AM-5PM",
    "language": "Russian",
    "rating": 1,
    "insurance": "",
    "lat": 34.194916,
    "lng": -84.448889
  },
  {
    "id": 307,
    "name": "100% Chiropractic North Cumming",
    "services": "Chiropractic Treatment",
    "address": "2633 Freedom Parkway, Cumming, GA 30041",
    "category": "Chiropractic Care",
    "markedGreen": false,
    "hours": "Monday-Friday 9AM-5PM",
    "language": "English",
    "rating": 2,
    "insurance": "",
    "lat": 34.250052,
    "lng": -84.091678
  },
  {
    "id": 308,
    "name": "Calhoun Chiropractic",
    "services": "Chiropractic Treatment",
    "address": "136 W Belmont Dr. Suite 4, Calhoun, GA 30701",
    "category": "Chiropractic Care",
    "markedGreen": false,
    "hours": "Monday-Friday 9AM-5PM",
    "language": "English",
    "rating": 3,
    "insurance": "",
    "lat": 34.478243,
    "lng": -84.936921
  },
  {
    "id": 309,
    "name": "Dallas Acworth Chiropractic",
    "services": "Chiropractic Treatment",
    "address": "10172 Dallas Acworth Hwy Suite 109, Dallas, GA 30132",
    "category": "Chiropractic Care",
    "markedGreen": false,
    "hours": "Monday-Friday 9AM-5PM",
    "language": "English",
    "rating": 1,
    "insurance": "",
    "lat": 34.02736,
    "lng": -84.742563
  },
  {
    "id": 310,
    "name": "Diaz Chiropractic",
    "services": "Chiropractic Treatment",
    "address": "730 Buford Hwy NE C 130, Doraville, GA 30340",
    "category": "Chiropractic Care",
    "markedGreen": true,
    "hours": "Monday-Friday 9AM-5PM",
    "language": "English",
    "rating": 2,
    "insurance": "",
    "lat": 33.90049,
    "lng": -84.277076
  },
  {
    "id": 311,
    "name": "Team Rehab Physical Therapy Atlanta \u2013 Midtown",
    "services": "Physical Therapy",
    "address": "1495 Northside Drive NW, Suite A,\nAtlanta, GA 30318",
    "category": "Physical Therapy",
    "markedGreen": false,
    "hours": "Monday-Friday 9AM-5PM",
    "language": "Russian",
    "rating": 1,
    "insurance": "",
    "lat": 33.795725,
    "lng": -84.4073
  },
  {
    "id": 312,
    "name": "Team Rehab Physical Therapy\u00a0Chamblee",
    "services": "Physical Therapy",
    "address": "5440 Peachtree Blvd.,\nChamblee, GA 30341",
    "category": "Physical Therapy",
    "markedGreen": false,
    "hours": "Monday-Friday 9AM-5PM",
    "language": "English",
    "rating": 2,
    "insurance": "",
    "lat": 33.897369,
    "lng": -84.302962
  },
  {
    "id": 313,
    "name": "Team Rehab Physical Therapy College Park",
    "services": "Physical Therapy",
    "address": "1867 Harvard Avenue,\nAtlanta, GA 30337",
    "category": "Physical Therapy",
    "markedGreen": false,
    "hours": "Monday-Friday 9AM-5PM",
    "language": "English",
    "rating": 3,
    "insurance": "",
    "lat": 33.653664,
    "lng": -84.450291
  },
  {
    "id": 314,
    "name": "Team Rehab Physical Therapy Conyers",
    "services": "Physical Therapy",
    "address": "1288 Wellbrook Circle, NE, Suite B\nConyers, GA 30012",
    "category": "Physical Therapy",
    "markedGreen": false,
    "hours": "Monday-Friday 9AM-5PM",
    "language": "English",
    "rating": 1,
    "insurance": "",
    "lat": 33.678046,
    "lng": -84.004756
  },
  {
    "id": 315,
    "name": "Team Rehab Physical Therapy\u00a0Decatur",
    "services": "Physical Therapy",
    "address": "1456 Church Street,\nDecatur, GA 30030",
    "category": "Physical Therapy",
    "markedGreen": false,
    "hours": "Monday-Friday 9AM-5PM",
    "language": "English",
    "rating": 2,
    "insurance": "",
    "lat": 33.790004,
    "lng": -84.287601
  },
  {
    "id": 316,
    "name": "Team Rehab Physical Therapy Decatur-Oak Grove",
    "services": "Physical Therapy",
    "address": "2836 Lavista Road, Suite 1B\nDecatur, GA 30033",
    "category": "Physical Therapy",
    "markedGreen": false,
    "hours": "Monday-Friday 9AM-5PM",
    "language": "English",
    "rating": 3,
    "insurance": "",
    "lat": 33.825825,
    "lng": -84.290076
  },
  {
    "id": 317,
    "name": "Team Rehab Physical Therapy Duluth",
    "services": "Physical Therapy",
    "address": "2103 Pleasant Hill Rd, Suite B\nDuluth, GA 30096",
    "category": "Physical Therapy",
    "markedGreen": false,
    "hours": "Monday-Friday 9AM-5PM",
    "language": "English",
    "rating": 1,
    "insurance": "",
    "lat": 33.956939,
    "lng": -84.134708
  },
  {
    "id": 318,
    "name": "Team Rehab Physical Therapy East Cobb-Marietta",
    "services": "Physical Therapy",
    "address": "1401 Johnson Ferry Road, Suite 340\nMarietta, GA 30062",
    "category": "Physical Therapy",
    "markedGreen": false,
    "hours": "Monday-Friday 9AM-5PM",
    "language": "English",
    "rating": 2,
    "insurance": "",
    "lat": 33.985523,
    "lng": -84.429243
  },
  {
    "id": 319,
    "name": "Team Rehab Physical Therapy Gainesville",
    "services": "Physical Therapy",
    "address": "975 Dawsonville Highway, Suite 6\nGainseville, GA 30501",
    "category": "Physical Therapy",
    "markedGreen": false,
    "hours": "Monday-Friday 9AM-5PM",
    "language": "English",
    "rating": 3,
    "insurance": "",
    "lat": 34.299296,
    "lng": -83.859605
  },
  {
    "id": 320,
    "name": "Team Rehab Physical Therapy Kennesaw",
    "services": "Physical Therapy",
    "address": "1200 Ernest Barrett Parkway, Suite 144\nKennesaw, GA 30144",
    "category": "Physical Therapy",
    "markedGreen": false,
    "hours": "Monday-Friday 9AM-5PM",
    "language": "English",
    "rating": 1,
    "insurance": "",
    "lat": 33.999262,
    "lng": -84.586384
  },
  {
    "id": 321,
    "name": "Team Rehab Physical Therapy McDonough",
    "services": "Physical Therapy",
    "address": "2168 Highway 20 W,\nMcDonough, GA 30253",
    "category": "Physical Therapy",
    "markedGreen": false,
    "hours": "Monday-Friday 9AM-5PM",
    "language": "English",
    "rating": 2,
    "insurance": "",
    "lat": 33.413359,
    "lng": -84.20214
  },
  {
    "id": 322,
    "name": "Team Rehab Physical Therapy Roswell",
    "services": "Physical Therapy",
    "address": "1570 Holcomb Bridge Rd., Suite 205\nRoswell, GA 30076",
    "category": "Physical Therapy",
    "markedGreen": false,
    "hours": "Monday-Friday 9AM-5PM",
    "language": "English",
    "rating": 3,
    "insurance": "",
    "lat": 34.019981,
    "lng": -84.314306
  },
  {
    "id": 323,
    "name": "Team Rehab Physical Therapy Snellville",
    "services": "Physical Therapy",
    "address": "2820 Main Street W, Suite B\nSnellville, GA 30078",
    "category": "Physical Therapy",
    "markedGreen": false,
    "hours": "Monday-Friday 9AM-5PM",
    "language": "English",
    "rating": 1,
    "insurance": "",
    "lat": 33.853935,
    "lng": -84.031055
  },
  {
    "id": 324,
    "name": "Team Rehab Physical Therapy Stockbridge",
    "services": "Physical Therapy",
    "address": "1060 Eagles Landing Pkwy, Suite 130\nStockbridge, GA 30281",
    "category": "Physical Therapy",
    "markedGreen": false,
    "hours": "Monday-Friday 9AM-5PM",
    "language": "English",
    "rating": 2,
    "insurance": "",
    "lat": 33.511643,
    "lng": -84.224434
  },
  {
    "id": 325,
    "name": "Team Rehab Physical Therapy Stone Mountain",
    "services": "Physical Therapy",
    "address": "1825 Rockbridge Road, Suite 15A\nStone Mountain, GA 30087",
    "category": "Physical Therapy",
    "markedGreen": false,
    "hours": "Monday-Friday 9AM-5PM",
    "language": "English",
    "rating": 3,
    "insurance": "",
    "lat": 33.823573,
    "lng": -84.123758
  },
  {
    "id": 326,
    "name": "Team Rehab Physical Therapy Tucker",
    "services": "Physical Therapy",
    "address": "1370 Montreal Road, Suite 100\nTucker, GA 30084",
    "category": "Physical Therapy",
    "markedGreen": false,
    "hours": "Monday-Friday 9AM-5PM",
    "language": "English",
    "rating": 1,
    "insurance": "",
    "lat": 33.823246,
    "lng": -84.251512
  },
  {
    "id": 327,
    "name": "Team Rehab Physical Therapy Woodstock",
    "services": "Physical Therapy",
    "address": "6236 Holly Springs Pkwy., Suite D8\nWoodstock, GA 30188",
    "category": "Physical Therapy",
    "markedGreen": false,
    "hours": "Monday-Sunday 9AM-5PM",
    "language": "Russian",
    "rating": 2,
    "insurance": "",
    "lat": 34.130177,
    "lng": -84.499581
  },
  {
    "id": 328,
    "name": "BenchMark Physical Therapy- Dublin",
    "services": "Physical Therapy",
    "address": "1817 Rice Ave ste c, Dublin, GA 31021",
    "category": "Physical Therapy",
    "markedGreen": false,
    "hours": "Monday-Friday 9AM-5PM",
    "language": "Russian",
    "rating": 3,
    "insurance": "",
    "lat": 32.538902,
    "lng": -82.939108
  },
  {
    "id": 329,
    "name": "Benchmark Physical Therapy- Decatur",
    "services": "Physical Therapy",
    "address": "2097 N Decatur Rd\nDecatur, Georgia 30033",
    "category": "Physical Therapy",
    "markedGreen": false,
    "hours": "Monday-Friday 9AM-5PM",
    "language": "English",
    "rating": 1,
    "insurance": "",
    "lat": 33.789538,
    "lng": -84.306033
  },
  {
    "id": 330,
    "name": "BenchMark Physical Therapy- Macon",
    "services": "Physical Therapy",
    "address": "5429 Bowman Road Ste 140\nMacon, Georgia 31210",
    "category": "Physical Therapy",
    "markedGreen": false,
    "hours": "Monday-Friday 9AM-5PM",
    "language": "English",
    "rating": 2,
    "insurance": "",
    "lat": 32.924665,
    "lng": -83.732783
  },
  {
    "id": 331,
    "name": "BenchMark Physical Therapy- Savannah (Victory)",
    "services": "Physical Therapy",
    "address": "1800 E Victory Dr Ste 4A\nSavannah, Georgia 31404",
    "category": "Physical Therapy",
    "markedGreen": false,
    "hours": "Monday-Friday 9AM-5PM",
    "language": "English",
    "rating": 3,
    "insurance": "",
    "lat": 32.045294,
    "lng": -81.071046
  },
  {
    "id": 332,
    "name": "BenchMark Physical Therapy- Stockbridge",
    "services": "Physical Therapy",
    "address": "1498 Hudson Bridge Rd\nStockbridge, Georgia 30281",
    "category": "Physical Therapy",
    "markedGreen": false,
    "hours": "Monday-Friday 9AM-5PM",
    "language": "English",
    "rating": 1,
    "insurance": "",
    "lat": 33.50701,
    "lng": -84.237502
  },
  {
    "id": 333,
    "name": "BenchMark Physical Therapy- Athens",
    "services": "Physical Therapy",
    "address": "1021 Parkway Boulevard 101\nAthens, Georgia 30606",
    "category": "Physical Therapy",
    "markedGreen": false,
    "hours": "Monday-Friday 9AM-5PM",
    "language": "English",
    "rating": 2,
    "insurance": "",
    "lat": 33.922292,
    "lng": -83.441617
  },
  {
    "id": 334,
    "name": "BenchMark Physical Therapy- Commerce",
    "services": "Physical Therapy",
    "address": "689 Hospital Rd\nCommerce, Georgia 30529",
    "category": "Physical Therapy",
    "markedGreen": false,
    "hours": "Monday-Friday 9AM-5PM",
    "language": "English",
    "rating": 3,
    "insurance": "",
    "lat": 34.217527,
    "lng": -83.468857
  },
  {
    "id": 335,
    "name": "Benchmark Physical Therapy - Buford \u2013 Sugar Hill",
    "services": "Physical Therapy",
    "address": "4510 Nelson Brogdon Blvd\nSugar Hill, Georgia 30518",
    "category": "Physical Therapy",
    "markedGreen": false,
    "hours": "Monday-Friday 9AM-5PM",
    "language": "English",
    "rating": 1,
    "insurance": "",
    "lat": 34.098658,
    "lng": -84.017915
  },
  {
    "id": 336,
    "name": "Benchmark Physical Therapy- Dublin",
    "services": "Physical Therapy",
    "address": "1817 Rice Avenue Ste C\nDublin, Georgia 31021",
    "category": "Physical Therapy",
    "markedGreen": false,
    "hours": "Monday-Friday 9AM-5PM",
    "language": "English",
    "rating": 2,
    "insurance": "",
    "lat": 32.538902,
    "lng": -82.939108
  },
  {
    "id": 337,
    "name": "Rehabilitation and Wound Care Institute",
    "services": "Physical Therapy",
    "address": "6330 Primrose Hill Ct, Suite 205 A\nNorcross, GA 30092-454",
    "category": "Physical Therapy",
    "markedGreen": false,
    "hours": "Monday-Friday 9AM-5PM",
    "language": "English",
    "rating": 3,
    "insurance": "",
    "lat": 33.96402,
    "lng": -84.254906
  },
  {
    "id": 338,
    "name": "BenchMark Physical Therapy (Zebulon)",
    "services": "Physical Therapy",
    "address": "810 Plaza Dr, Zebulon, GA 30295",
    "category": "Physical Therapy",
    "markedGreen": false,
    "hours": "Monday-Friday 9AM-5PM",
    "language": "English",
    "rating": 1,
    "insurance": "",
    "lat": 33.124862,
    "lng": -84.328858
  },
  {
    "id": 339,
    "name": "fixtPT-\u00a0West Midtown (now open)",
    "services": "Physical Therapy",
    "address": "2320 Marietta Blvd NW Atlanta, GA 30318",
    "category": "Physical Therapy",
    "markedGreen": false,
    "hours": "Monday-Friday 9AM-5PM",
    "language": "English",
    "rating": 2,
    "insurance": "",
    "lat": 33.820162,
    "lng": -84.453653
  },
  {
    "id": 340,
    "name": "fixtPT-\u00a0Lawrenceville (opening mid-January",
    "services": "Physical Therapy",
    "address": "455 Phillip Blvd, Suite 135 Lawrenceville, GA 30046",
    "category": "Physical Therapy",
    "markedGreen": false,
    "hours": "Monday-Friday 9AM-5PM",
    "language": "English",
    "rating": 3,
    "insurance": "",
    "lat": 33.968352,
    "lng": -84.010593
  },
  {
    "id": 341,
    "name": "fixtPT-Sandy Springs (opening February)",
    "services": "Physical Therapy",
    "address": "7000 Peachtree Dunwoody Rd. Bldg 17, Floor 1, Sandy Springs, GA 30328",
    "category": "Physical Therapy",
    "markedGreen": false,
    "hours": "Monday-Friday 9AM-5PM",
    "language": "English",
    "rating": 1,
    "insurance": "",
    "lat": 33.945936,
    "lng": -84.353544
  },
  {
    "id": 342,
    "name": "Precision Injury Care \u2013 Lawrenceville",
    "services": "Physical Therapy",
    "address": "555 Old Norcross Rd Suite 210\nLawrenceville, GA 30046",
    "category": "Physical Therapy",
    "markedGreen": false,
    "hours": "Monday-Friday 9AM-5PM",
    "language": "English",
    "rating": 2,
    "insurance": "",
    "lat": 33.959583,
    "lng": -84.006849
  },
  {
    "id": 343,
    "name": "Precision Injury Care \u2013 CAMP CREEK/ATLANTA",
    "services": "Physical Therapy",
    "address": "2300 Camp Creek Pkwy\nSuite 200\nAtlanta, GA 30337",
    "category": "Physical Therapy",
    "markedGreen": false,
    "hours": "Monday-Friday 9AM-5PM",
    "language": "English",
    "rating": 3,
    "insurance": "",
    "lat": 33.648663,
    "lng": -84.465691
  },
  {
    "id": 344,
    "name": "Trident Medical Centers (Athens/Bogart/Watkinsville)",
    "services": "Physical Therapy",
    "address": "2092 Prince Ave\nBuilding B\nAthens, GA 30606",
    "category": "Physical Therapy",
    "markedGreen": false,
    "hours": "Monday-Sunday 9AM-5PM",
    "language": "Russian",
    "rating": 1,
    "insurance": "",
    "lat": 33.970094,
    "lng": -83.409354
  },
  {
    "id": 345,
    "name": "Titan Injury Centers-Hinesville",
    "services": "Physical Therapy",
    "address": "1146 Elma G. Miles Parkway\nSuite 103\nHinesville, GA 31313",
    "category": "Physical Therapy",
    "markedGreen": false,
    "hours": "Monday-Friday 9AM-5PM",
    "language": "Russian",
    "rating": 2,
    "insurance": "",
    "lat": 31.822995,
    "lng": -81.630258
  },
  {
    "id": 346,
    "name": "Titan Injury Centers-Garden City",
    "services": "Physical Therapy",
    "address": "109 Minus Ave\nUnit C-2\nGarden City, GA\n31408",
    "category": "Physical Therapy",
    "markedGreen": false,
    "hours": "Monday-Friday 9AM-5PM",
    "language": "English",
    "rating": 3,
    "insurance": "",
    "lat": 32.103894,
    "lng": -81.146659
  },
  {
    "id": 347,
    "name": "Titan Injury Centers-Savannah",
    "services": "Physical Therapy",
    "address": "7205 Hodgson Memorial Dr.\nSavannah, GA\n31406",
    "category": "Physical Therapy",
    "markedGreen": false,
    "hours": "Monday-Friday 9AM-5PM",
    "language": "English",
    "rating": 1,
    "insurance": "",
    "lat": 32.003643,
    "lng": -81.111831
  },
  {
    "id": 348,
    "name": "Titan Injury Centers-Brunswick",
    "services": "Physical Therapy",
    "address": "3365 Cypress Mill Rd\nBrunswick, GA\n31520",
    "category": "Physical Therapy",
    "markedGreen": false,
    "hours": "Monday-Friday 9AM-5PM",
    "language": "English",
    "rating": 2,
    "insurance": "",
    "lat": 31.19478,
    "lng": -81.479746
  },
  {
    "id": 349,
    "name": "Quest Physical Therapy",
    "services": "Physical Therapy",
    "address": "4216 Washington Rd., Ste. 2\nEvans, GA 30809",
    "category": "Physical Therapy",
    "markedGreen": false,
    "hours": "Monday-Friday 9AM-5PM",
    "language": "English",
    "rating": 3,
    "insurance": "",
    "lat": 33.523299,
    "lng": -82.122861
  },
  {
    "id": 350,
    "name": "Optimum Care Physical Therapy",
    "services": "Physical Therapy",
    "address": "1670 Mckendree Church Road,\nSuite 60\nLawrenceville, GA 30043",
    "category": "Physical Therapy",
    "markedGreen": false,
    "hours": "Monday-Friday 9AM-5PM",
    "language": "English",
    "rating": 1,
    "insurance": "",
    "lat": 33.990728,
    "lng": -84.035064
  },
  {
    "id": 351,
    "name": "BenchMark Physical Therapy-\u00a0Sumter, SC",
    "services": "Physical Therapy",
    "address": "3386 Yampa St. Sumter, SC 29150",
    "category": "Physical Therapy",
    "markedGreen": false,
    "hours": "Monday-Friday 9AM-5PM",
    "language": "English",
    "rating": 2,
    "insurance": "",
    "lat": 33.961735,
    "lng": -80.422384
  },
  {
    "id": 352,
    "name": "Benchmark Physical Therapy- Rome",
    "services": "Physical Therapy",
    "address": "3870 Martha Berry Hwy NE, Rome GA 30165",
    "category": "Physical Therapy",
    "markedGreen": false,
    "hours": "Monday-Friday 9AM-5PM",
    "language": "English",
    "rating": 3,
    "insurance": "",
    "lat": 34.331993,
    "lng": -85.170702
  },
  {
    "id": 353,
    "name": "Benchmark PT - Winder, Bethlehem",
    "services": "Physical Therapy",
    "address": "916 Loganville Hwy Ste 1130 \nBethlehem, GA 30620",
    "category": "Physical Therapy",
    "markedGreen": false,
    "hours": "Monday-Friday 9AM-5PM",
    "language": "English",
    "rating": 1,
    "insurance": "",
    "lat": 33.942522,
    "lng": -83.750108
  },
  {
    "id": 354,
    "name": "Benchmark Physical Therapy - Cumming",
    "services": "Physical Therapy",
    "address": "1370 Buford Hwy #108, Cumming, GA 30041",
    "category": "Physical Therapy",
    "markedGreen": false,
    "hours": "Monday-Friday 9AM-5PM",
    "language": "English",
    "rating": 2,
    "insurance": "",
    "lat": 34.168195,
    "lng": -84.123868
  },
  {
    "id": 355,
    "name": "Safeway Psychological Services",
    "services": "Mental Health",
    "address": "Virtual Tele-visit",
    "category": "Mental Health",
    "markedGreen": false,
    "hours": "Monday-Friday 9AM-5PM",
    "language": "Russian",
    "rating": 1,
    "insurance": "",
    "lat": null,
    "lng": null
  },
  {
    "id": 356,
    "name": "EnRich Psychotherapy",
    "services": "Mental Health",
    "address": "ALL visits are virtual\nThere is NO physical office location",
    "category": "Mental Health",
    "markedGreen": false,
    "hours": "Monday-Friday 9AM-5PM",
    "language": "English",
    "rating": 2,
    "insurance": "",
    "lat": null,
    "lng": null
  },
  {
    "id": 357,
    "name": "Personal Injury Trauma Therapy (PITT)- Virtual",
    "services": "Mental Health",
    "address": "Contact Information:\nTelephone: 470-836-4878\nEmail: admin@personalinjurytraumatherapy.com\nContact Person: Dee\n\nMailing Address: 1227 North Peachtree Pkwy Suite 103 Peachtree City, GA 30269-1743",
    "category": "Mental Health",
    "markedGreen": false,
    "hours": "Monday-Friday 9AM-5PM",
    "language": "English",
    "rating": 3,
    "insurance": "",
    "lat": null,
    "lng": null
  },
  {
    "id": 358,
    "name": "Psych Centers of Georgia",
    "services": "Mental Health",
    "address": "Phone Number: (678) 538-9314\nDefault Contact: Gairy Johnson\n\u00a0https://psychga.com/",
    "category": "Mental Health",
    "markedGreen": false,
    "hours": "Monday-Friday 9AM-5PM",
    "language": "English",
    "rating": 1,
    "insurance": "",
    "lat": 52.16706,
    "lng": -10.329016
  },
  {
    "id": 359,
    "name": "CarePartners Pharmacy (Virtual)",
    "services": "Virtual Pharmacy",
    "address": "Virtual",
    "category": "Virtual Pharmacy",
    "markedGreen": false,
    "hours": "",
    "language": "English",
    "rating": null,
    "insurance": "",
    "lat": null,
    "lng": null
  },
  {
    "id": 360,
    "name": "First Visit MD (Atlantic Medical Specialist)",
    "services": "Virtual visist for Initial Evaluation",
    "address": "",
    "category": "Initial Visit Virtual MD",
    "markedGreen": false,
    "hours": "",
    "language": "English",
    "rating": null,
    "insurance": "",
    "lat": null,
    "lng": null
  }
]